{
  "cities":
  [
  {
    "city": "Tokyo",
    "city_ascii": "Tokyo",
    "latitude": 35.685,
    "longitude": 139.7514,
    "country": "Japan",
    "iso2": "JP",
    "iso3": "JPN",
    "admin_name": "Tōkyō",
    "capital": "primary",
    "population": 35676000,
    "id": 1392685764
  },
  {
    "city": "New York",
    "city_ascii": "New York",
    "latitude": 40.6943,
    "longitude": -73.9249,
    "country": "United States",
    "iso2": "US",
    "iso3": "USA",
    "admin_name": "New York",
    "capital": "",
    "population": 19164071,
    "id": 1840034016
  },
  {
    "city": "Mexico City",
    "city_ascii": "Mexico City",
    "latitude": 19.4424,
    "longitude": -99.131,
    "country": "Mexico",
    "iso2": "MX",
    "iso3": "MEX",
    "admin_name": "Ciudad de México",
    "capital": "primary",
    "population": 19028000,
    "id": 1484247881
  },
  {
    "city": "Mumbai",
    "city_ascii": "Mumbai",
    "latitude": 19.017,
    "longitude": 72.857,
    "country": "India",
    "iso2": "IN",
    "iso3": "IND",
    "admin_name": "Mahārāshtra",
    "capital": "admin",
    "population": 18978000,
    "id": 1356226629
  },
  {
    "city": "São Paulo",
    "city_ascii": "Sao Paulo",
    "latitude": -23.5587,
    "longitude": -46.625,
    "country": "Brazil",
    "iso2": "BR",
    "iso3": "BRA",
    "admin_name": "São Paulo",
    "capital": "admin",
    "population": 18845000,
    "id": 1076532519
  },
  {
    "city": "Delhi",
    "city_ascii": "Delhi",
    "latitude": 28.67,
    "longitude": 77.23,
    "country": "India",
    "iso2": "IN",
    "iso3": "IND",
    "admin_name": "Delhi",
    "capital": "admin",
    "population": 15926000,
    "id": 1356872604
  },
  {
    "city": "Shanghai",
    "city_ascii": "Shanghai",
    "latitude": 31.2165,
    "longitude": 121.4365,
    "country": "China",
    "iso2": "CN",
    "iso3": "CHN",
    "admin_name": "Shanghai",
    "capital": "admin",
    "population": 14987000,
    "id": 1156073548
  },
  {
    "city": "Kolkata",
    "city_ascii": "Kolkata",
    "latitude": 22.495,
    "longitude": 88.3247,
    "country": "India",
    "iso2": "IN",
    "iso3": "IND",
    "admin_name": "West Bengal",
    "capital": "admin",
    "population": 14787000,
    "id": 1356060520
  },
  {
    "city": "Dhaka",
    "city_ascii": "Dhaka",
    "latitude": 23.7231,
    "longitude": 90.4086,
    "country": "Bangladesh",
    "iso2": "BD",
    "iso3": "BGD",
    "admin_name": "Dhaka",
    "capital": "primary",
    "population": 12797394,
    "id": 1050529279
  },
  {
    "city": "Buenos Aires",
    "city_ascii": "Buenos Aires",
    "latitude": -34.6025,
    "longitude": -58.3975,
    "country": "Argentina",
    "iso2": "AR",
    "iso3": "ARG",
    "admin_name": "Buenos Aires, Ciudad Autónoma de",
    "capital": "primary",
    "population": 12795000,
    "id": 1032717330
  },
  {
    "city": "Los Angeles",
    "city_ascii": "Los Angeles",
    "latitude": 34.114,
    "longitude": -118.4068,
    "country": "United States",
    "iso2": "US",
    "iso3": "USA",
    "admin_name": "California",
    "capital": "",
    "population": 12740381,
    "id": 1840020491
  },
  {
    "city": "Karachi",
    "city_ascii": "Karachi",
    "latitude": 24.87,
    "longitude": 66.99,
    "country": "Pakistan",
    "iso2": "PK",
    "iso3": "PAK",
    "admin_name": "Sindh",
    "capital": "admin",
    "population": 12130000,
    "id": 1586129469
  },
  {
    "city": "Cairo",
    "city_ascii": "Cairo",
    "latitude": 30.05,
    "longitude": 31.25,
    "country": "Egypt",
    "iso2": "EG",
    "iso3": "EGY",
    "admin_name": "Al Qāhirah",
    "capital": "primary",
    "population": 11893000,
    "id": 1818253931
  },
  {
    "city": "Rio de Janeiro",
    "city_ascii": "Rio de Janeiro",
    "latitude": -22.925,
    "longitude": -43.225,
    "country": "Brazil",
    "iso2": "BR",
    "iso3": "BRA",
    "admin_name": "Rio de Janeiro",
    "capital": "admin",
    "population": 11748000,
    "id": 1076887657
  },
  {
    "city": "Ōsaka",
    "city_ascii": "Osaka",
    "latitude": 34.75,
    "longitude": 135.4601,
    "country": "Japan",
    "iso2": "JP",
    "iso3": "JPN",
    "admin_name": "Ōsaka",
    "capital": "admin",
    "population": 11294000,
    "id": 1392419823
  },
  {
    "city": "Beijing",
    "city_ascii": "Beijing",
    "latitude": 39.9289,
    "longitude": 116.3883,
    "country": "China",
    "iso2": "CN",
    "iso3": "CHN",
    "admin_name": "Beijing",
    "capital": "primary",
    "population": 11106000,
    "id": 1156228865
  },
  {
    "city": "Manila",
    "city_ascii": "Manila",
    "latitude": 14.6042,
    "longitude": 120.9822,
    "country": "Philippines",
    "iso2": "PH",
    "iso3": "PHL",
    "admin_name": "",
    "capital": "primary",
    "population": 11100000,
    "id": 1608618140
  },
  {
    "city": "Moscow",
    "city_ascii": "Moscow",
    "latitude": 55.7522,
    "longitude": 37.6155,
    "country": "Russia",
    "iso2": "RU",
    "iso3": "RUS",
    "admin_name": "Moskva",
    "capital": "primary",
    "population": 10452000,
    "id": 1643318494
  },
  {
    "city": "Istanbul",
    "city_ascii": "Istanbul",
    "latitude": 41.105,
    "longitude": 29.01,
    "country": "Turkey",
    "iso2": "TR",
    "iso3": "TUR",
    "admin_name": "İstanbul",
    "capital": "admin",
    "population": 10061000,
    "id": 1792756324
  },
  {
    "city": "Paris",
    "city_ascii": "Paris",
    "latitude": 48.8667,
    "longitude": 2.3333,
    "country": "France",
    "iso2": "FR",
    "iso3": "FRA",
    "admin_name": "Île-de-France",
    "capital": "primary",
    "population": 9904000,
    "id": 1250015082
  },
  {
    "city": "Seoul",
    "city_ascii": "Seoul",
    "latitude": 37.5663,
    "longitude": 126.9997,
    "country": "Korea, South",
    "iso2": "KR",
    "iso3": "KOR",
    "admin_name": "Seoul",
    "capital": "primary",
    "population": 9796000,
    "id": 1410836482
  },
  {
    "city": "Lagos",
    "city_ascii": "Lagos",
    "latitude": 6.4433,
    "longitude": 3.3915,
    "country": "Nigeria",
    "iso2": "NG",
    "iso3": "NGA",
    "admin_name": "Lagos",
    "capital": "minor",
    "population": 9466000,
    "id": 1566593751
  },
  {
    "city": "Jakarta",
    "city_ascii": "Jakarta",
    "latitude": -6.1744,
    "longitude": 106.8294,
    "country": "Indonesia",
    "iso2": "ID",
    "iso3": "IDN",
    "admin_name": "Jakarta",
    "capital": "primary",
    "population": 9125000,
    "id": 1360771077
  },
  {
    "city": "Guangzhou",
    "city_ascii": "Guangzhou",
    "latitude": 23.145,
    "longitude": 113.325,
    "country": "China",
    "iso2": "CN",
    "iso3": "CHN",
    "admin_name": "Guangdong",
    "capital": "admin",
    "population": 8829000,
    "id": 1156237133
  },
  {
    "city": "Chicago",
    "city_ascii": "Chicago",
    "latitude": 41.8373,
    "longitude": -87.6861,
    "country": "United States",
    "iso2": "US",
    "iso3": "USA",
    "admin_name": "Illinois",
    "capital": "",
    "population": 8639278,
    "id": 1840000494
  },
  {
    "city": "London",
    "city_ascii": "London",
    "latitude": 51.5,
    "longitude": -0.1167,
    "country": "United Kingdom",
    "iso2": "GB",
    "iso3": "GBR",
    "admin_name": "",
    "capital": "primary",
    "population": 8567000,
    "id": 1826645935
  },
  {
    "city": "Lima",
    "city_ascii": "Lima",
    "latitude": -12.048,
    "longitude": -77.0501,
    "country": "Peru",
    "iso2": "PE",
    "iso3": "PER",
    "admin_name": "Lima",
    "capital": "primary",
    "population": 8012000,
    "id": 1604728603
  },
  {
    "city": "Tehran",
    "city_ascii": "Tehran",
    "latitude": 35.6719,
    "longitude": 51.4243,
    "country": "Iran",
    "iso2": "IR",
    "iso3": "IRN",
    "admin_name": "Tehrān",
    "capital": "primary",
    "population": 7873000,
    "id": 1364305026
  },
  {
    "city": "Kinshasa",
    "city_ascii": "Kinshasa",
    "latitude": -4.3297,
    "longitude": 15.315,
    "country": "Congo (Kinshasa)",
    "iso2": "CD",
    "iso3": "COD",
    "admin_name": "Kinshasa",
    "capital": "primary",
    "population": 7843000,
    "id": 1180000363
  },
  {
    "city": "Bogota",
    "city_ascii": "Bogota",
    "latitude": 4.5964,
    "longitude": -74.0833,
    "country": "Colombia",
    "iso2": "CO",
    "iso3": "COL",
    "admin_name": "Bogotá",
    "capital": "primary",
    "population": 7772000,
    "id": 1170483426
  },
  {
    "city": "Shenzhen",
    "city_ascii": "Shenzhen",
    "latitude": 22.5524,
    "longitude": 114.1221,
    "country": "China",
    "iso2": "CN",
    "iso3": "CHN",
    "admin_name": "Guangdong",
    "capital": "minor",
    "population": 7581000,
    "id": 1156158707
  },
  {
    "city": "Wuhan",
    "city_ascii": "Wuhan",
    "latitude": 30.58,
    "longitude": 114.27,
    "country": "China",
    "iso2": "CN",
    "iso3": "CHN",
    "admin_name": "Hubei",
    "capital": "admin",
    "population": 7243000,
    "id": 1156117184
  },
  {
    "city": "Hong Kong",
    "city_ascii": "Hong Kong",
    "latitude": 22.305,
    "longitude": 114.185,
    "country": "Hong Kong",
    "iso2": "HK",
    "iso3": "HKG",
    "admin_name": "",
    "capital": "",
    "population": 7206000,
    "id": 1344982653
  },
  {
    "city": "Tianjin",
    "city_ascii": "Tianjin",
    "latitude": 39.13,
    "longitude": 117.2,
    "country": "China",
    "iso2": "CN",
    "iso3": "CHN",
    "admin_name": "Tianjin",
    "capital": "admin",
    "population": 7180000,
    "id": 1156174046
  },
  {
    "city": "Chennai",
    "city_ascii": "Chennai",
    "latitude": 13.09,
    "longitude": 80.28,
    "country": "India",
    "iso2": "IN",
    "iso3": "IND",
    "admin_name": "Tamil Nādu",
    "capital": "admin",
    "population": 7163000,
    "id": 1356374944
  },
  {
    "city": "Taipei",
    "city_ascii": "Taipei",
    "latitude": 25.0358,
    "longitude": 121.5683,
    "country": "Taiwan",
    "iso2": "TW",
    "iso3": "TWN",
    "admin_name": "Taipei",
    "capital": "primary",
    "population": 6900273,
    "id": 1158881289
  },
  {
    "city": "Bangalore",
    "city_ascii": "Bangalore",
    "latitude": 12.97,
    "longitude": 77.56,
    "country": "India",
    "iso2": "IN",
    "iso3": "IND",
    "admin_name": "Karnātaka",
    "capital": "admin",
    "population": 6787000,
    "id": 1356410365
  },
  {
    "city": "Bangkok",
    "city_ascii": "Bangkok",
    "latitude": 13.75,
    "longitude": 100.5166,
    "country": "Thailand",
    "iso2": "TH",
    "iso3": "THA",
    "admin_name": "Krung Thep Maha Nakhon",
    "capital": "primary",
    "population": 6704000,
    "id": 1764068610
  },
  {
    "city": "Lahore",
    "city_ascii": "Lahore",
    "latitude": 31.56,
    "longitude": 74.35,
    "country": "Pakistan",
    "iso2": "PK",
    "iso3": "PAK",
    "admin_name": "Punjab",
    "capital": "admin",
    "population": 6577000,
    "id": 1586801463
  },
  {
    "city": "Chongqing",
    "city_ascii": "Chongqing",
    "latitude": 29.565,
    "longitude": 106.595,
    "country": "China",
    "iso2": "CN",
    "iso3": "CHN",
    "admin_name": "Chongqing",
    "capital": "admin",
    "population": 6461000,
    "id": 1156936556
  },
  {
    "city": "Hyderabad",
    "city_ascii": "Hyderabad",
    "latitude": 17.4,
    "longitude": 78.48,
    "country": "India",
    "iso2": "IN",
    "iso3": "IND",
    "admin_name": "Andhra Pradesh",
    "capital": "admin",
    "population": 6376000,
    "id": 1356871768
  },
  {
    "city": "Miami",
    "city_ascii": "Miami",
    "latitude": 25.784,
    "longitude": -80.2102,
    "country": "United States",
    "iso2": "US",
    "iso3": "USA",
    "admin_name": "Florida",
    "capital": "",
    "population": 6247425,
    "id": 1840015149
  },
  {
    "city": "Santiago",
    "city_ascii": "Santiago",
    "latitude": -33.45,
    "longitude": -70.667,
    "country": "Chile",
    "iso2": "CL",
    "iso3": "CHL",
    "admin_name": "Región Metropolitana",
    "capital": "primary",
    "population": 5720000,
    "id": 1152554349
  },
  {
    "city": "Dallas",
    "city_ascii": "Dallas",
    "latitude": 32.7938,
    "longitude": -96.7659,
    "country": "United States",
    "iso2": "US",
    "iso3": "USA",
    "admin_name": "Texas",
    "capital": "",
    "population": 5634307,
    "id": 1840019440
  },
  {
    "city": "Philadelphia",
    "city_ascii": "Philadelphia",
    "latitude": 40.0076,
    "longitude": -75.134,
    "country": "United States",
    "iso2": "US",
    "iso3": "USA",
    "admin_name": "Pennsylvania",
    "capital": "",
    "population": 5591554,
    "id": 1840000673
  },
  {
    "city": "Belo Horizonte",
    "city_ascii": "Belo Horizonte",
    "latitude": -19.915,
    "longitude": -43.915,
    "country": "Brazil",
    "iso2": "BR",
    "iso3": "BRA",
    "admin_name": "Minas Gerais",
    "capital": "admin",
    "population": 5575000,
    "id": 1076967355
  },
  {
    "city": "Madrid",
    "city_ascii": "Madrid",
    "latitude": 40.4,
    "longitude": -3.6834,
    "country": "Spain",
    "iso2": "ES",
    "iso3": "ESP",
    "admin_name": "Madrid",
    "capital": "primary",
    "population": 5567000,
    "id": 1724616994
  },
  {
    "city": "Houston",
    "city_ascii": "Houston",
    "latitude": 29.7871,
    "longitude": -95.3936,
    "country": "United States",
    "iso2": "US",
    "iso3": "USA",
    "admin_name": "Texas",
    "capital": "",
    "population": 5424720,
    "id": 1840020925
  },
  {
    "city": "Ahmedabad",
    "city_ascii": "Ahmedabad",
    "latitude": 23.0301,
    "longitude": 72.58,
    "country": "India",
    "iso2": "IN",
    "iso3": "IND",
    "admin_name": "Gujarāt",
    "capital": "minor",
    "population": 5375000,
    "id": 1356304381
  },
  {
    "city": "Ho Chi Minh City",
    "city_ascii": "Ho Chi Minh City",
    "latitude": 10.78,
    "longitude": 106.695,
    "country": "Vietnam",
    "iso2": "VN",
    "iso3": "VNM",
    "admin_name": "Hồ Chí Minh",
    "capital": "admin",
    "population": 5314000,
    "id": 1704774326
  },
  {
    "city": "Toronto",
    "city_ascii": "Toronto",
    "latitude": 43.7,
    "longitude": -79.42,
    "country": "Canada",
    "iso2": "CA",
    "iso3": "CAN",
    "admin_name": "Ontario",
    "capital": "admin",
    "population": 5213000,
    "id": 1124279679
  },
  {
    "city": "Washington",
    "city_ascii": "Washington",
    "latitude": 38.9047,
    "longitude": -77.0163,
    "country": "United States",
    "iso2": "US",
    "iso3": "USA",
    "admin_name": "District of Columbia",
    "capital": "primary",
    "population": 5191844,
    "id": 1840006060
  },
  {
    "city": "Singapore",
    "city_ascii": "Singapore",
    "latitude": 1.293,
    "longitude": 103.8558,
    "country": "Singapore",
    "iso2": "SG",
    "iso3": "SGP",
    "admin_name": "",
    "capital": "primary",
    "population": 5183700,
    "id": 1702341327
  },
  {
    "city": "Luanda",
    "city_ascii": "Luanda",
    "latitude": -8.8383,
    "longitude": 13.2344,
    "country": "Angola",
    "iso2": "AO",
    "iso3": "AGO",
    "admin_name": "Luanda",
    "capital": "primary",
    "population": 5172900,
    "id": 1024949724
  },
  {
    "city": "Atlanta",
    "city_ascii": "Atlanta",
    "latitude": 33.7627,
    "longitude": -84.4231,
    "country": "United States",
    "iso2": "US",
    "iso3": "USA",
    "admin_name": "Georgia",
    "capital": "admin",
    "population": 5080712,
    "id": 1840013660
  },
  {
    "city": "Baghdad",
    "city_ascii": "Baghdad",
    "latitude": 33.3386,
    "longitude": 44.3939,
    "country": "Iraq",
    "iso2": "IQ",
    "iso3": "IRQ",
    "admin_name": "Baghdād",
    "capital": "primary",
    "population": 5054000,
    "id": 1368596238
  },
  {
    "city": "Barcelona",
    "city_ascii": "Barcelona",
    "latitude": 41.3833,
    "longitude": 2.1834,
    "country": "Spain",
    "iso2": "ES",
    "iso3": "ESP",
    "admin_name": "Catalonia",
    "capital": "admin",
    "population": 4920000,
    "id": 1724594040
  },
  {
    "city": "Haora",
    "city_ascii": "Haora",
    "latitude": 22.5804,
    "longitude": 88.3299,
    "country": "India",
    "iso2": "IN",
    "iso3": "IND",
    "admin_name": "West Bengal",
    "capital": "",
    "population": 4841638,
    "id": 1356986516
  },
  {
    "city": "Shenyeng",
    "city_ascii": "Shenyeng",
    "latitude": 41.805,
    "longitude": 123.45,
    "country": "China",
    "iso2": "CN",
    "iso3": "CHN",
    "admin_name": "Liaoning",
    "capital": "admin",
    "population": 4787000,
    "id": 1156309382
  },
  {
    "city": "Khartoum",
    "city_ascii": "Khartoum",
    "latitude": 15.5881,
    "longitude": 32.5342,
    "country": "Sudan",
    "iso2": "SD",
    "iso3": "SDN",
    "admin_name": "Khartoum",
    "capital": "primary",
    "population": 4754000,
    "id": 1729268475
  },
  {
    "city": "Pune",
    "city_ascii": "Pune",
    "latitude": 18.53,
    "longitude": 73.85,
    "country": "India",
    "iso2": "IN",
    "iso3": "IND",
    "admin_name": "Mahārāshtra",
    "capital": "",
    "population": 4672000,
    "id": 1356081074
  },
  {
    "city": "Sydney",
    "city_ascii": "Sydney",
    "latitude": -33.92,
    "longitude": 151.1852,
    "country": "Australia",
    "iso2": "AU",
    "iso3": "AUS",
    "admin_name": "New South Wales",
    "capital": "admin",
    "population": 4630000,
    "id": 1036074917
  },
  {
    "city": "Boston",
    "city_ascii": "Boston",
    "latitude": 42.3189,
    "longitude": -71.0838,
    "country": "United States",
    "iso2": "US",
    "iso3": "USA",
    "admin_name": "Massachusetts",
    "capital": "admin",
    "population": 4556916,
    "id": 1840000455
  },
  {
    "city": "St. Petersburg",
    "city_ascii": "St. Petersburg",
    "latitude": 59.939,
    "longitude": 30.316,
    "country": "Russia",
    "iso2": "RU",
    "iso3": "RUS",
    "admin_name": "Sankt-Peterburg",
    "capital": "admin",
    "population": 4553000,
    "id": 1643616350
  },
  {
    "city": "Chittagong",
    "city_ascii": "Chittagong",
    "latitude": 22.33,
    "longitude": 91.8,
    "country": "Bangladesh",
    "iso2": "BD",
    "iso3": "BGD",
    "admin_name": "Chittagong",
    "capital": "admin",
    "population": 4529000,
    "id": 1050830722
  },
  {
    "city": "Dongguan",
    "city_ascii": "Dongguan",
    "latitude": 23.0489,
    "longitude": 113.7447,
    "country": "China",
    "iso2": "CN",
    "iso3": "CHN",
    "admin_name": "Guangdong",
    "capital": "minor",
    "population": 4528000,
    "id": 1156478242
  },
  {
    "city": "Riyadh",
    "city_ascii": "Riyadh",
    "latitude": 24.6408,
    "longitude": 46.7727,
    "country": "Saudi Arabia",
    "iso2": "SA",
    "iso3": "SAU",
    "admin_name": "Ar Riyāḑ",
    "capital": "primary",
    "population": 4465000,
    "id": 1682999334
  },
  {
    "city": "Hanoi",
    "city_ascii": "Hanoi",
    "latitude": 21.0333,
    "longitude": 105.85,
    "country": "Vietnam",
    "iso2": "VN",
    "iso3": "VNM",
    "admin_name": "Hà Nội",
    "capital": "primary",
    "population": 4378000,
    "id": 1704413791
  },
  {
    "city": "Guadalajara",
    "city_ascii": "Guadalajara",
    "latitude": 20.67,
    "longitude": -103.33,
    "country": "Mexico",
    "iso2": "MX",
    "iso3": "MEX",
    "admin_name": "Jalisco",
    "capital": "admin",
    "population": 4198000,
    "id": 1484950208
  },
  {
    "city": "Melbourne",
    "city_ascii": "Melbourne",
    "latitude": -37.82,
    "longitude": 144.975,
    "country": "Australia",
    "iso2": "AU",
    "iso3": "AUS",
    "admin_name": "Victoria",
    "capital": "admin",
    "population": 4170000,
    "id": 1036533631
  },
  {
    "city": "Alexandria",
    "city_ascii": "Alexandria",
    "latitude": 31.2,
    "longitude": 29.95,
    "country": "Egypt",
    "iso2": "EG",
    "iso3": "EGY",
    "admin_name": "Al Iskandarīyah",
    "capital": "admin",
    "population": 4165000,
    "id": 1818695837
  },
  {
    "city": "Chengdu",
    "city_ascii": "Chengdu",
    "latitude": 30.67,
    "longitude": 104.07,
    "country": "China",
    "iso2": "CN",
    "iso3": "CHN",
    "admin_name": "Sichuan",
    "capital": "admin",
    "population": 4123000,
    "id": 1156421555
  },
  {
    "city": "Rangoon",
    "city_ascii": "Rangoon",
    "latitude": 16.7834,
    "longitude": 96.1667,
    "country": "Burma",
    "iso2": "MM",
    "iso3": "MMR",
    "admin_name": "Yangon",
    "capital": "primary",
    "population": 4088000,
    "id": 1104616656
  },
  {
    "city": "Phoenix",
    "city_ascii": "Phoenix",
    "latitude": 33.5722,
    "longitude": -112.0891,
    "country": "United States",
    "iso2": "US",
    "iso3": "USA",
    "admin_name": "Arizona",
    "capital": "admin",
    "population": 4054083,
    "id": 1840020568
  },
  {
    "city": "Xian",
    "city_ascii": "Xian",
    "latitude": 34.275,
    "longitude": 108.895,
    "country": "China",
    "iso2": "CN",
    "iso3": "CHN",
    "admin_name": "Shaanxi",
    "capital": "admin",
    "population": 4009000,
    "id": 1156244079
  },
  {
    "city": "Porto Alegre",
    "city_ascii": "Porto Alegre",
    "latitude": -30.05,
    "longitude": -51.2,
    "country": "Brazil",
    "iso2": "BR",
    "iso3": "BRA",
    "admin_name": "Rio Grande do Sul",
    "capital": "admin",
    "population": 3917000,
    "id": 1076658221
  },
  {
    "city": "Surat",
    "city_ascii": "Surat",
    "latitude": 21.2,
    "longitude": 72.84,
    "country": "India",
    "iso2": "IN",
    "iso3": "IND",
    "admin_name": "Gujarāt",
    "capital": "",
    "population": 3842000,
    "id": 1356758738
  },
  {
    "city": "Hechi",
    "city_ascii": "Hechi",
    "latitude": 23.0965,
    "longitude": 109.6091,
    "country": "China",
    "iso2": "CN",
    "iso3": "CHN",
    "admin_name": "Guangxi",
    "capital": "",
    "population": 3830000,
    "id": 1156868701
  },
  {
    "city": "Abidjan",
    "city_ascii": "Abidjan",
    "latitude": 5.32,
    "longitude": -4.04,
    "country": "C𴥠DӉvoire",
    "iso2": "CI",
    "iso3": "CIV",
    "admin_name": "Abidjan",
    "capital": "admin",
    "population": 3802000,
    "id": 1384207980
  },
  {
    "city": "Brasília",
    "city_ascii": "Brasilia",
    "latitude": -15.7833,
    "longitude": -47.9161,
    "country": "Brazil",
    "iso2": "BR",
    "iso3": "BRA",
    "admin_name": "Distrito Federal",
    "capital": "primary",
    "population": 3716996,
    "id": 1076144436
  },
  {
    "city": "Ankara",
    "city_ascii": "Ankara",
    "latitude": 39.9272,
    "longitude": 32.8644,
    "country": "Turkey",
    "iso2": "TR",
    "iso3": "TUR",
    "admin_name": "Ankara",
    "capital": "primary",
    "population": 3716000,
    "id": 1792572891
  },
  {
    "city": "Monterrey",
    "city_ascii": "Monterrey",
    "latitude": 25.67,
    "longitude": -100.33,
    "country": "Mexico",
    "iso2": "MX",
    "iso3": "MEX",
    "admin_name": "Nuevo León",
    "capital": "admin",
    "population": 3712000,
    "id": 1484559591
  },
  {
    "city": "Yokohama",
    "city_ascii": "Yokohama",
    "latitude": 35.32,
    "longitude": 139.58,
    "country": "Japan",
    "iso2": "JP",
    "iso3": "JPN",
    "admin_name": "Kanagawa",
    "capital": "admin",
    "population": 3697894,
    "id": 1392118339
  },
  {
    "city": "Nanjing",
    "city_ascii": "Nanjing",
    "latitude": 32.05,
    "longitude": 118.78,
    "country": "China",
    "iso2": "CN",
    "iso3": "CHN",
    "admin_name": "Jiangsu",
    "capital": "admin",
    "population": 3679000,
    "id": 1156644065
  },
  {
    "city": "Montréal",
    "city_ascii": "Montreal",
    "latitude": 45.5,
    "longitude": -73.5833,
    "country": "Canada",
    "iso2": "CA",
    "iso3": "CAN",
    "admin_name": "Québec",
    "capital": "",
    "population": 3678000,
    "id": 1124586170
  },
  {
    "city": "Guiyang",
    "city_ascii": "Guiyang",
    "latitude": 26.58,
    "longitude": 106.72,
    "country": "China",
    "iso2": "CN",
    "iso3": "CHN",
    "admin_name": "Guizhou",
    "capital": "admin",
    "population": 3662000,
    "id": 1156932620
  },
  {
    "city": "Recife",
    "city_ascii": "Recife",
    "latitude": -8.0756,
    "longitude": -34.9156,
    "country": "Brazil",
    "iso2": "BR",
    "iso3": "BRA",
    "admin_name": "Pernambuco",
    "capital": "admin",
    "population": 3651000,
    "id": 1076137337
  },
  {
    "city": "Harbin",
    "city_ascii": "Harbin",
    "latitude": 45.75,
    "longitude": 126.65,
    "country": "China",
    "iso2": "CN",
    "iso3": "CHN",
    "admin_name": "Heilongjiang",
    "capital": "admin",
    "population": 3621000,
    "id": 1156241528
  },
  {
    "city": "Fortaleza",
    "city_ascii": "Fortaleza",
    "latitude": -3.75,
    "longitude": -38.58,
    "country": "Brazil",
    "iso2": "BR",
    "iso3": "BRA",
    "admin_name": "Ceará",
    "capital": "admin",
    "population": 3602319,
    "id": 1076567885
  },
  {
    "city": "San Francisco",
    "city_ascii": "San Francisco",
    "latitude": 37.7561,
    "longitude": -122.4429,
    "country": "United States",
    "iso2": "US",
    "iso3": "USA",
    "admin_name": "California",
    "capital": "",
    "population": 3548847,
    "id": 1840021543
  },
  {
    "city": "Seattle",
    "city_ascii": "Seattle",
    "latitude": 47.6217,
    "longitude": -122.3238,
    "country": "United States",
    "iso2": "US",
    "iso3": "USA",
    "admin_name": "Washington",
    "capital": "",
    "population": 3541236,
    "id": 1840021117
  },
  {
    "city": "Zhangzhou",
    "city_ascii": "Zhangzhou",
    "latitude": 24.5204,
    "longitude": 117.67,
    "country": "China",
    "iso2": "CN",
    "iso3": "CHN",
    "admin_name": "Fujian",
    "capital": "minor",
    "population": 3531147,
    "id": 1156241637
  },
  {
    "city": "Detroit",
    "city_ascii": "Detroit",
    "latitude": 42.3834,
    "longitude": -83.1024,
    "country": "United States",
    "iso2": "US",
    "iso3": "USA",
    "admin_name": "Michigan",
    "capital": "",
    "population": 3520589,
    "id": 1840003971
  },
  {
    "city": "Salvador",
    "city_ascii": "Salvador",
    "latitude": -12.97,
    "longitude": -38.48,
    "country": "Brazil",
    "iso2": "BR",
    "iso3": "BRA",
    "admin_name": "Bahia",
    "capital": "admin",
    "population": 3484000,
    "id": 1076923789
  },
  {
    "city": "Busan",
    "city_ascii": "Busan",
    "latitude": 35.0951,
    "longitude": 129.01,
    "country": "Korea, South",
    "iso2": "KR",
    "iso3": "KOR",
    "admin_name": "Busan",
    "capital": "admin",
    "population": 3480000,
    "id": 1410601465
  },
  {
    "city": "Johannesburg",
    "city_ascii": "Johannesburg",
    "latitude": -26.17,
    "longitude": 28.03,
    "country": "South Africa",
    "iso2": "ZA",
    "iso3": "ZAF",
    "admin_name": "Gauteng",
    "capital": "admin",
    "population": 3435000,
    "id": 1710550792
  },
  {
    "city": "Berlin",
    "city_ascii": "Berlin",
    "latitude": 52.5218,
    "longitude": 13.4015,
    "country": "Germany",
    "iso2": "DE",
    "iso3": "DEU",
    "admin_name": "Berlin",
    "capital": "primary",
    "population": 3406000,
    "id": 1276451290
  },
  {
    "city": "Algiers",
    "city_ascii": "Algiers",
    "latitude": 36.7631,
    "longitude": 3.0506,
    "country": "Algeria",
    "iso2": "DZ",
    "iso3": "DZA",
    "admin_name": "Alger",
    "capital": "primary",
    "population": 3354000,
    "id": 1012973369
  },
  {
    "city": "Rome",
    "city_ascii": "Rome",
    "latitude": 41.896,
    "longitude": 12.4833,
    "country": "Italy",
    "iso2": "IT",
    "iso3": "ITA",
    "admin_name": "Lazio",
    "capital": "primary",
    "population": 3339000,
    "id": 1380382862
  },
  {
    "city": "Pyongyang",
    "city_ascii": "Pyongyang",
    "latitude": 39.0194,
    "longitude": 125.7547,
    "country": "Korea, North",
    "iso2": "KP",
    "iso3": "PRK",
    "admin_name": "P’yŏngyang",
    "capital": "primary",
    "population": 3300000,
    "id": 1408738594
  },
  {
    "city": "Medellín",
    "city_ascii": "Medellin",
    "latitude": 6.275,
    "longitude": -75.575,
    "country": "Colombia",
    "iso2": "CO",
    "iso3": "COL",
    "admin_name": "Antioquia",
    "capital": "admin",
    "population": 3297000,
    "id": 1170680389
  },
  {
    "city": "Kabul",
    "city_ascii": "Kabul",
    "latitude": 34.5167,
    "longitude": 69.1833,
    "country": "Afghanistan",
    "iso2": "AF",
    "iso3": "AFG",
    "admin_name": "Kābul",
    "capital": "primary",
    "population": 3277000,
    "id": 1004993580
  },
  {
    "city": "Athens",
    "city_ascii": "Athens",
    "latitude": 37.9833,
    "longitude": 23.7333,
    "country": "Greece",
    "iso2": "GR",
    "iso3": "GRC",
    "admin_name": "Attikí",
    "capital": "primary",
    "population": 3242000,
    "id": 1300715560
  },
  {
    "city": "Nagoya",
    "city_ascii": "Nagoya",
    "latitude": 35.155,
    "longitude": 136.915,
    "country": "Japan",
    "iso2": "JP",
    "iso3": "JPN",
    "admin_name": "Aichi",
    "capital": "admin",
    "population": 3230000,
    "id": 1392407472
  },
  {
    "city": "Cape Town",
    "city_ascii": "Cape Town",
    "latitude": -33.92,
    "longitude": 18.435,
    "country": "South Africa",
    "iso2": "ZA",
    "iso3": "ZAF",
    "admin_name": "Western Cape",
    "capital": "primary",
    "population": 3215000,
    "id": 1710680650
  },
  {
    "city": "Changchun",
    "city_ascii": "Changchun",
    "latitude": 43.865,
    "longitude": 125.34,
    "country": "China",
    "iso2": "CN",
    "iso3": "CHN",
    "admin_name": "Jilin",
    "capital": "admin",
    "population": 3183000,
    "id": 1156078103
  },
  {
    "city": "San Diego",
    "city_ascii": "San Diego",
    "latitude": 32.8312,
    "longitude": -117.1225,
    "country": "United States",
    "iso2": "US",
    "iso3": "USA",
    "admin_name": "California",
    "capital": "",
    "population": 3181172,
    "id": 1840021990
  },
  {
    "city": "Casablanca",
    "city_ascii": "Casablanca",
    "latitude": 33.6,
    "longitude": -7.6164,
    "country": "Morocco",
    "iso2": "MA",
    "iso3": "MAR",
    "admin_name": "Casablanca-Settat",
    "capital": "admin",
    "population": 3181000,
    "id": 1504175315
  },
  {
    "city": "Dalian",
    "city_ascii": "Dalian",
    "latitude": 38.9228,
    "longitude": 121.6298,
    "country": "China",
    "iso2": "CN",
    "iso3": "CHN",
    "admin_name": "Liaoning",
    "capital": "",
    "population": 3167000,
    "id": 1156175472
  },
  {
    "city": "Kanpur",
    "city_ascii": "Kanpur",
    "latitude": 26.46,
    "longitude": 80.32,
    "country": "India",
    "iso2": "IN",
    "iso3": "IND",
    "admin_name": "Uttar Pradesh",
    "capital": "",
    "population": 3162000,
    "id": 1356575238
  },
  {
    "city": "Kano",
    "city_ascii": "Kano",
    "latitude": 12,
    "longitude": 8.52,
    "country": "Nigeria",
    "iso2": "NG",
    "iso3": "NGA",
    "admin_name": "Kano",
    "capital": "admin",
    "population": 3140000,
    "id": 1566422868
  },
  {
    "city": "Tel Aviv-Yafo",
    "city_ascii": "Tel Aviv-Yafo",
    "latitude": 32.08,
    "longitude": 34.77,
    "country": "Israel",
    "iso2": "IL",
    "iso3": "ISR",
    "admin_name": "Tel Aviv",
    "capital": "admin",
    "population": 3112000,
    "id": 1376401542
  },
  {
    "city": "Addis Ababa",
    "city_ascii": "Addis Ababa",
    "latitude": 9.0333,
    "longitude": 38.7,
    "country": "Ethiopia",
    "iso2": "ET",
    "iso3": "ETH",
    "admin_name": "Ādīs Ābeba",
    "capital": "primary",
    "population": 3100000,
    "id": 1231824991
  },
  {
    "city": "Curitiba",
    "city_ascii": "Curitiba",
    "latitude": -25.42,
    "longitude": -49.32,
    "country": "Brazil",
    "iso2": "BR",
    "iso3": "BRA",
    "admin_name": "Paraná",
    "capital": "admin",
    "population": 3084000,
    "id": 1076701712
  },
  {
    "city": "Zibo",
    "city_ascii": "Zibo",
    "latitude": 36.8,
    "longitude": 118.05,
    "country": "China",
    "iso2": "CN",
    "iso3": "CHN",
    "admin_name": "Shandong",
    "capital": "",
    "population": 3061000,
    "id": 1156381094
  },
  {
    "city": "Jeddah",
    "city_ascii": "Jeddah",
    "latitude": 21.5169,
    "longitude": 39.2192,
    "country": "Saudi Arabia",
    "iso2": "SA",
    "iso3": "SAU",
    "admin_name": "Makkah al Mukarramah",
    "capital": "",
    "population": 3012000,
    "id": 1682926944
  },
  {
    "city": "Nairobi",
    "city_ascii": "Nairobi",
    "latitude": -1.2833,
    "longitude": 36.8167,
    "country": "Kenya",
    "iso2": "KE",
    "iso3": "KEN",
    "admin_name": "Nairobi City",
    "capital": "primary",
    "population": 3010000,
    "id": 1404000661
  },
  {
    "city": "Hangzhou",
    "city_ascii": "Hangzhou",
    "latitude": 30.25,
    "longitude": 120.17,
    "country": "China",
    "iso2": "CN",
    "iso3": "CHN",
    "admin_name": "Zhejiang",
    "capital": "admin",
    "population": 3007000,
    "id": 1156275243
  },
  {
    "city": "Benoni",
    "city_ascii": "Benoni",
    "latitude": -26.1496,
    "longitude": 28.3299,
    "country": "South Africa",
    "iso2": "ZA",
    "iso3": "ZAF",
    "admin_name": "Gauteng",
    "capital": "",
    "population": 2986000,
    "id": 1710880986
  },
  {
    "city": "Caracas",
    "city_ascii": "Caracas",
    "latitude": 10.501,
    "longitude": -66.917,
    "country": "Venezuela",
    "iso2": "VE",
    "iso3": "VEN",
    "admin_name": "Distrito Capital",
    "capital": "primary",
    "population": 2985000,
    "id": 1862748204
  },
  {
    "city": "Milan",
    "city_ascii": "Milan",
    "latitude": 45.47,
    "longitude": 9.205,
    "country": "Italy",
    "iso2": "IT",
    "iso3": "ITA",
    "admin_name": "Lombardy",
    "capital": "admin",
    "population": 2945000,
    "id": 1380724377
  },
  {
    "city": "Stuttgart",
    "city_ascii": "Stuttgart",
    "latitude": 48.78,
    "longitude": 9.2,
    "country": "Germany",
    "iso2": "DE",
    "iso3": "DEU",
    "admin_name": "Baden-Württemberg",
    "capital": "admin",
    "population": 2944700,
    "id": 1276171358
  },
  {
    "city": "Kunming",
    "city_ascii": "Kunming",
    "latitude": 25.07,
    "longitude": 102.68,
    "country": "China",
    "iso2": "CN",
    "iso3": "CHN",
    "admin_name": "Yunnan",
    "capital": "admin",
    "population": 2931000,
    "id": 1156477539
  },
  {
    "city": "Dar es Salaam",
    "city_ascii": "Dar es Salaam",
    "latitude": -6.8,
    "longitude": 39.2683,
    "country": "Tanzania",
    "iso2": "TZ",
    "iso3": "TZA",
    "admin_name": "",
    "capital": "primary",
    "population": 2930000,
    "id": 1834843853
  },
  {
    "city": "Jaipur",
    "city_ascii": "Jaipur",
    "latitude": 26.9211,
    "longitude": 75.81,
    "country": "India",
    "iso2": "IN",
    "iso3": "IND",
    "admin_name": "Rājasthān",
    "capital": "admin",
    "population": 2917000,
    "id": 1356293537
  },
  {
    "city": "Taiyuan",
    "city_ascii": "Taiyuan",
    "latitude": 37.875,
    "longitude": 112.5451,
    "country": "China",
    "iso2": "CN",
    "iso3": "CHN",
    "admin_name": "Shanxi",
    "capital": "admin",
    "population": 2913000,
    "id": 1156632014
  },
  {
    "city": "Frankfurt",
    "city_ascii": "Frankfurt",
    "latitude": 50.1,
    "longitude": 8.675,
    "country": "Germany",
    "iso2": "DE",
    "iso3": "DEU",
    "admin_name": "Hesse",
    "capital": "minor",
    "population": 2895000,
    "id": 1276054552
  },
  {
    "city": "Minneapolis",
    "city_ascii": "Minneapolis",
    "latitude": 44.9635,
    "longitude": -93.2679,
    "country": "United States",
    "iso2": "US",
    "iso3": "USA",
    "admin_name": "Minnesota",
    "capital": "",
    "population": 2866604,
    "id": 1840007830
  },
  {
    "city": "Qingdao",
    "city_ascii": "Qingdao",
    "latitude": 36.09,
    "longitude": 120.33,
    "country": "China",
    "iso2": "CN",
    "iso3": "CHN",
    "admin_name": "Shandong",
    "capital": "minor",
    "population": 2866000,
    "id": 1156112588
  },
  {
    "city": "Surabaya",
    "city_ascii": "Surabaya",
    "latitude": -7.2492,
    "longitude": 112.7508,
    "country": "Indonesia",
    "iso2": "ID",
    "iso3": "IDN",
    "admin_name": "Jawa Timur",
    "capital": "admin",
    "population": 2845000,
    "id": 1360484663
  },
  {
    "city": "Lisbon",
    "city_ascii": "Lisbon",
    "latitude": 38.7227,
    "longitude": -9.1449,
    "country": "Portugal",
    "iso2": "PT",
    "iso3": "PRT",
    "admin_name": "Lisboa",
    "capital": "primary",
    "population": 2812000,
    "id": 1620619017
  },
  {
    "city": "Jinan",
    "city_ascii": "Jinan",
    "latitude": 36.675,
    "longitude": 116.995,
    "country": "China",
    "iso2": "CN",
    "iso3": "CHN",
    "admin_name": "Shandong",
    "capital": "admin",
    "population": 2798000,
    "id": 1156972469
  },
  {
    "city": "Fukuoka",
    "city_ascii": "Fukuoka",
    "latitude": 33.595,
    "longitude": 130.41,
    "country": "Japan",
    "iso2": "JP",
    "iso3": "JPN",
    "admin_name": "Fukuoka",
    "capital": "admin",
    "population": 2792000,
    "id": 1392576294
  },
  {
    "city": "Campinas",
    "city_ascii": "Campinas",
    "latitude": -22.9,
    "longitude": -47.1,
    "country": "Brazil",
    "iso2": "BR",
    "iso3": "BRA",
    "admin_name": "São Paulo",
    "capital": "",
    "population": 2791000,
    "id": 1076145766
  },
  {
    "city": "Kaohsiung",
    "city_ascii": "Kaohsiung",
    "latitude": 22.6333,
    "longitude": 120.2666,
    "country": "Taiwan",
    "iso2": "TW",
    "iso3": "TWN",
    "admin_name": "Kaohsiung",
    "capital": "admin",
    "population": 2769072,
    "id": 1158331334
  },
  {
    "city": "Quezon City",
    "city_ascii": "Quezon City",
    "latitude": 14.6504,
    "longitude": 121.03,
    "country": "Philippines",
    "iso2": "PH",
    "iso3": "PHL",
    "admin_name": "Quezon",
    "capital": "admin",
    "population": 2761720,
    "id": 1608974097
  },
  {
    "city": "Katowice",
    "city_ascii": "Katowice",
    "latitude": 50.2604,
    "longitude": 19.02,
    "country": "Poland",
    "iso2": "PL",
    "iso3": "POL",
    "admin_name": "Śląskie",
    "capital": "admin",
    "population": 2746000,
    "id": 1616798495
  },
  {
    "city": "Tampa",
    "city_ascii": "Tampa",
    "latitude": 27.9937,
    "longitude": -82.4454,
    "country": "United States",
    "iso2": "US",
    "iso3": "USA",
    "admin_name": "Florida",
    "capital": "",
    "population": 2744107,
    "id": 1840015982
  },
  {
    "city": "Denver",
    "city_ascii": "Denver",
    "latitude": 39.7621,
    "longitude": -104.8759,
    "country": "United States",
    "iso2": "US",
    "iso3": "USA",
    "admin_name": "Colorado",
    "capital": "admin",
    "population": 2741534,
    "id": 1840018789
  },
  {
    "city": "Aleppo",
    "city_ascii": "Aleppo",
    "latitude": 36.23,
    "longitude": 37.17,
    "country": "Syria",
    "iso2": "SY",
    "iso3": "SYR",
    "admin_name": "Ḩalab",
    "capital": "admin",
    "population": 2738000,
    "id": 1760366651
  },
  {
    "city": "Durban",
    "city_ascii": "Durban",
    "latitude": -29.865,
    "longitude": 30.98,
    "country": "South Africa",
    "iso2": "ZA",
    "iso3": "ZAF",
    "admin_name": "KwaZulu-Natal",
    "capital": "",
    "population": 2729000,
    "id": 1710149138
  },
  {
    "city": "Kiev",
    "city_ascii": "Kiev",
    "latitude": 50.4334,
    "longitude": 30.5166,
    "country": "Ukraine",
    "iso2": "UA",
    "iso3": "UKR",
    "admin_name": "Kyyiv, Misto",
    "capital": "primary",
    "population": 2709000,
    "id": 1804382913
  },
  {
    "city": "Lucknow",
    "city_ascii": "Lucknow",
    "latitude": 26.855,
    "longitude": 80.915,
    "country": "India",
    "iso2": "IN",
    "iso3": "IND",
    "admin_name": "Uttar Pradesh",
    "capital": "admin",
    "population": 2695000,
    "id": 1356891790
  },
  {
    "city": "El Giza",
    "city_ascii": "El Giza",
    "latitude": 30.01,
    "longitude": 31.19,
    "country": "Egypt",
    "iso2": "EG",
    "iso3": "EGY",
    "admin_name": "Al Jīzah",
    "capital": "admin",
    "population": 2681863,
    "id": 1818925479
  },
  {
    "city": "Zhengzhou",
    "city_ascii": "Zhengzhou",
    "latitude": 34.755,
    "longitude": 113.6651,
    "country": "China",
    "iso2": "CN",
    "iso3": "CHN",
    "admin_name": "Henan",
    "capital": "admin",
    "population": 2636000,
    "id": 1156183137
  },
  {
    "city": "Taichung",
    "city_ascii": "Taichung",
    "latitude": 24.1521,
    "longitude": 120.6817,
    "country": "Taiwan",
    "iso2": "TW",
    "iso3": "TWN",
    "admin_name": "Taichung",
    "capital": "admin",
    "population": 2629323,
    "id": 1158689622
  },
  {
    "city": "Brooklyn",
    "city_ascii": "Brooklyn",
    "latitude": 40.6501,
    "longitude": -73.9496,
    "country": "United States",
    "iso2": "US",
    "iso3": "USA",
    "admin_name": "New York",
    "capital": "",
    "population": 2629150,
    "id": 1840034030
  },
  {
    "city": "Ibadan",
    "city_ascii": "Ibadan",
    "latitude": 7.38,
    "longitude": 3.93,
    "country": "Nigeria",
    "iso2": "NG",
    "iso3": "NGA",
    "admin_name": "Oyo",
    "capital": "admin",
    "population": 2628000,
    "id": 1566366407
  },
  {
    "city": "Faisalabad",
    "city_ascii": "Faisalabad",
    "latitude": 31.41,
    "longitude": 73.11,
    "country": "Pakistan",
    "iso2": "PK",
    "iso3": "PAK",
    "admin_name": "Punjab",
    "capital": "minor",
    "population": 2617000,
    "id": 1586323916
  },
  {
    "city": "Fuzhou",
    "city_ascii": "Fuzhou",
    "latitude": 26.08,
    "longitude": 119.3,
    "country": "China",
    "iso2": "CN",
    "iso3": "CHN",
    "admin_name": "Fujian",
    "capital": "admin",
    "population": 2606000,
    "id": 1156188037
  },
  {
    "city": "Dakar",
    "city_ascii": "Dakar",
    "latitude": 14.7158,
    "longitude": -17.4731,
    "country": "Senegal",
    "iso2": "SN",
    "iso3": "SEN",
    "admin_name": "Dakar",
    "capital": "primary",
    "population": 2604000,
    "id": 1686604760
  },
  {
    "city": "Changsha",
    "city_ascii": "Changsha",
    "latitude": 28.2,
    "longitude": 112.97,
    "country": "China",
    "iso2": "CN",
    "iso3": "CHN",
    "admin_name": "Hunan",
    "capital": "admin",
    "population": 2604000,
    "id": 1156961497
  },
  {
    "city": "İzmir",
    "city_ascii": "Izmir",
    "latitude": 38.4361,
    "longitude": 27.1518,
    "country": "Turkey",
    "iso2": "TR",
    "iso3": "TUR",
    "admin_name": "İzmir",
    "capital": "admin",
    "population": 2587000,
    "id": 1792725579
  },
  {
    "city": "Xiangtan",
    "city_ascii": "Xiangtan",
    "latitude": 27.8504,
    "longitude": 112.9,
    "country": "China",
    "iso2": "CN",
    "iso3": "CHN",
    "admin_name": "Hunan",
    "capital": "",
    "population": 2586948,
    "id": 1156195684
  },
  {
    "city": "Lanzhou",
    "city_ascii": "Lanzhou",
    "latitude": 36.056,
    "longitude": 103.792,
    "country": "China",
    "iso2": "CN",
    "iso3": "CHN",
    "admin_name": "Gansu",
    "capital": "admin",
    "population": 2561000,
    "id": 1156280566
  },
  {
    "city": "Incheon",
    "city_ascii": "Incheon",
    "latitude": 37.4761,
    "longitude": 126.6422,
    "country": "Korea, South",
    "iso2": "KR",
    "iso3": "KOR",
    "admin_name": "Incheon",
    "capital": "admin",
    "population": 2550000,
    "id": 1410160313
  },
  {
    "city": "Sapporo",
    "city_ascii": "Sapporo",
    "latitude": 43.075,
    "longitude": 141.34,
    "country": "Japan",
    "iso2": "JP",
    "iso3": "JPN",
    "admin_name": "Hokkaidō",
    "capital": "admin",
    "population": 2544000,
    "id": 1392000195
  },
  {
    "city": "Xiamen",
    "city_ascii": "Xiamen",
    "latitude": 24.45,
    "longitude": 118.08,
    "country": "China",
    "iso2": "CN",
    "iso3": "CHN",
    "admin_name": "Fujian",
    "capital": "minor",
    "population": 2519000,
    "id": 1156212809
  },
  {
    "city": "Guayaquil",
    "city_ascii": "Guayaquil",
    "latitude": -2.22,
    "longitude": -79.92,
    "country": "Ecuador",
    "iso2": "EC",
    "iso3": "ECU",
    "admin_name": "Guayas",
    "capital": "admin",
    "population": 2514000,
    "id": 1218802178
  },
  {
    "city": "George Town",
    "city_ascii": "George Town",
    "latitude": 5.4136,
    "longitude": 100.3294,
    "country": "Malaysia",
    "iso2": "MY",
    "iso3": "MYS",
    "admin_name": "Pulau Pinang",
    "capital": "admin",
    "population": 2500000,
    "id": 1458236750
  },
  {
    "city": "Mashhad",
    "city_ascii": "Mashhad",
    "latitude": 36.27,
    "longitude": 59.57,
    "country": "Iran",
    "iso2": "IR",
    "iso3": "IRN",
    "admin_name": "Khorāsān-e Raẕavī",
    "capital": "admin",
    "population": 2469000,
    "id": 1364123206
  },
  {
    "city": "Damascus",
    "city_ascii": "Damascus",
    "latitude": 33.5,
    "longitude": 36.3,
    "country": "Syria",
    "iso2": "SY",
    "iso3": "SYR",
    "admin_name": "Dimashq",
    "capital": "primary",
    "population": 2466000,
    "id": 1760685964
  },
  {
    "city": "Daegu",
    "city_ascii": "Daegu",
    "latitude": 35.8668,
    "longitude": 128.607,
    "country": "Korea, South",
    "iso2": "KR",
    "iso3": "KOR",
    "admin_name": "Daegu",
    "capital": "admin",
    "population": 2460000,
    "id": 1410095252
  },
  {
    "city": "Nagpur",
    "city_ascii": "Nagpur",
    "latitude": 21.17,
    "longitude": 79.09,
    "country": "India",
    "iso2": "IN",
    "iso3": "IND",
    "admin_name": "Mahārāshtra",
    "capital": "",
    "population": 2454000,
    "id": 1356365743
  },
  {
    "city": "Jinxi",
    "city_ascii": "Jinxi",
    "latitude": 40.7503,
    "longitude": 120.83,
    "country": "China",
    "iso2": "CN",
    "iso3": "CHN",
    "admin_name": "Liaoning",
    "capital": "minor",
    "population": 2426000,
    "id": 1156046704
  },
  {
    "city": "Shijianzhuang",
    "city_ascii": "Shijianzhuang",
    "latitude": 38.05,
    "longitude": 114.48,
    "country": "China",
    "iso2": "CN",
    "iso3": "CHN",
    "admin_name": "Hebei",
    "capital": "admin",
    "population": 2417000,
    "id": 1156217541
  },
  {
    "city": "Tunis",
    "city_ascii": "Tunis",
    "latitude": 36.8028,
    "longitude": 10.1797,
    "country": "Tunisia",
    "iso2": "TN",
    "iso3": "TUN",
    "admin_name": "Tunis",
    "capital": "primary",
    "population": 2412500,
    "id": 1788742103
  },
  {
    "city": "Vienna",
    "city_ascii": "Vienna",
    "latitude": 48.2,
    "longitude": 16.3666,
    "country": "Austria",
    "iso2": "AT",
    "iso3": "AUT",
    "admin_name": "Wien",
    "capital": "primary",
    "population": 2400000,
    "id": 1040261752
  },
  {
    "city": "Jilin",
    "city_ascii": "Jilin",
    "latitude": 43.85,
    "longitude": 126.55,
    "country": "China",
    "iso2": "CN",
    "iso3": "CHN",
    "admin_name": "Jilin",
    "capital": "",
    "population": 2396000,
    "id": 1156646448
  },
  {
    "city": "Omdurman",
    "city_ascii": "Omdurman",
    "latitude": 15.6167,
    "longitude": 32.48,
    "country": "Sudan",
    "iso2": "SD",
    "iso3": "SDN",
    "admin_name": "Khartoum",
    "capital": "",
    "population": 2395159,
    "id": 1729912179
  },
  {
    "city": "Bandung",
    "city_ascii": "Bandung",
    "latitude": -6.95,
    "longitude": 107.57,
    "country": "Indonesia",
    "iso2": "ID",
    "iso3": "IDN",
    "admin_name": "Jawa Barat",
    "capital": "admin",
    "population": 2394000,
    "id": 1360313023
  },
  {
    "city": "Bekasi",
    "city_ascii": "Bekasi",
    "latitude": -6.2173,
    "longitude": 106.9723,
    "country": "Indonesia",
    "iso2": "ID",
    "iso3": "IDN",
    "admin_name": "Jawa Barat",
    "capital": "",
    "population": 2378211,
    "id": 1360006015
  },
  {
    "city": "Mannheim",
    "city_ascii": "Mannheim",
    "latitude": 49.5004,
    "longitude": 8.47,
    "country": "Germany",
    "iso2": "DE",
    "iso3": "DEU",
    "admin_name": "Baden-Württemberg",
    "capital": "minor",
    "population": 2362000,
    "id": 1276150104
  },
  {
    "city": "Nanchang",
    "city_ascii": "Nanchang",
    "latitude": 28.68,
    "longitude": 115.88,
    "country": "China",
    "iso2": "CN",
    "iso3": "CHN",
    "admin_name": "Jiangxi",
    "capital": "admin",
    "population": 2350000,
    "id": 1156198892
  },
  {
    "city": "Wenzhou",
    "city_ascii": "Wenzhou",
    "latitude": 28.02,
    "longitude": 120.6501,
    "country": "China",
    "iso2": "CN",
    "iso3": "CHN",
    "admin_name": "Zhejiang",
    "capital": "",
    "population": 2350000,
    "id": 1156188829
  },
  {
    "city": "Queens",
    "city_ascii": "Queens",
    "latitude": 40.7498,
    "longitude": -73.7976,
    "country": "United States",
    "iso2": "US",
    "iso3": "USA",
    "admin_name": "New York",
    "capital": "",
    "population": 2333054,
    "id": 1840034002
  },
  {
    "city": "Vancouver",
    "city_ascii": "Vancouver",
    "latitude": 49.2734,
    "longitude": -123.1216,
    "country": "Canada",
    "iso2": "CA",
    "iso3": "CAN",
    "admin_name": "British Columbia",
    "capital": "",
    "population": 2313328,
    "id": 1124825478
  },
  {
    "city": "Birmingham",
    "city_ascii": "Birmingham",
    "latitude": 52.475,
    "longitude": -1.92,
    "country": "United Kingdom",
    "iso2": "GB",
    "iso3": "GBR",
    "admin_name": "Birmingham",
    "capital": "admin",
    "population": 2285000,
    "id": 1826423213
  },
  {
    "city": "Cali",
    "city_ascii": "Cali",
    "latitude": 3.4,
    "longitude": -76.5,
    "country": "Colombia",
    "iso2": "CO",
    "iso3": "COL",
    "admin_name": "Valle del Cauca",
    "capital": "admin",
    "population": 2254000,
    "id": 1170417589
  },
  {
    "city": "Sendai",
    "city_ascii": "Sendai",
    "latitude": 38.2871,
    "longitude": 141.0217,
    "country": "Japan",
    "iso2": "JP",
    "iso3": "JPN",
    "admin_name": "Miyagi",
    "capital": "admin",
    "population": 2250000,
    "id": 1392457903
  },
  {
    "city": "Naples",
    "city_ascii": "Naples",
    "latitude": 40.84,
    "longitude": 14.245,
    "country": "Italy",
    "iso2": "IT",
    "iso3": "ITA",
    "admin_name": "Campania",
    "capital": "admin",
    "population": 2250000,
    "id": 1380646673
  },
  {
    "city": "Manchester",
    "city_ascii": "Manchester",
    "latitude": 53.5004,
    "longitude": -2.248,
    "country": "United Kingdom",
    "iso2": "GB",
    "iso3": "GBR",
    "admin_name": "Manchester",
    "capital": "admin",
    "population": 2230000,
    "id": 1826246335
  },
  {
    "city": "Puebla",
    "city_ascii": "Puebla",
    "latitude": 19.05,
    "longitude": -98.2,
    "country": "Mexico",
    "iso2": "MX",
    "iso3": "MEX",
    "admin_name": "Puebla",
    "capital": "admin",
    "population": 2195000,
    "id": 1484416394
  },
  {
    "city": "Tripoli",
    "city_ascii": "Tripoli",
    "latitude": 32.8925,
    "longitude": 13.18,
    "country": "Libya",
    "iso2": "LY",
    "iso3": "LBY",
    "admin_name": "Ţarābulus",
    "capital": "primary",
    "population": 2189000,
    "id": 1434201852
  },
  {
    "city": "Tashkent",
    "city_ascii": "Tashkent",
    "latitude": 41.3117,
    "longitude": 69.2949,
    "country": "Uzbekistan",
    "iso2": "UZ",
    "iso3": "UZB",
    "admin_name": "Toshkent",
    "capital": "primary",
    "population": 2184000,
    "id": 1860331871
  },
  {
    "city": "Baltimore",
    "city_ascii": "Baltimore",
    "latitude": 39.3051,
    "longitude": -76.6144,
    "country": "United States",
    "iso2": "US",
    "iso3": "USA",
    "admin_name": "Maryland",
    "capital": "",
    "population": 2181206,
    "id": 1840001592
  },
  {
    "city": "Havana",
    "city_ascii": "Havana",
    "latitude": 23.132,
    "longitude": -82.3642,
    "country": "Cuba",
    "iso2": "CU",
    "iso3": "CUB",
    "admin_name": "La Habana",
    "capital": "primary",
    "population": 2174000,
    "id": 1192752771
  },
  {
    "city": "Nanchong",
    "city_ascii": "Nanchong",
    "latitude": 30.7804,
    "longitude": 106.13,
    "country": "China",
    "iso2": "CN",
    "iso3": "CHN",
    "admin_name": "Sichuan",
    "capital": "minor",
    "population": 2174000,
    "id": 1156522457
  },
  {
    "city": "Nanning",
    "city_ascii": "Nanning",
    "latitude": 22.82,
    "longitude": 108.32,
    "country": "China",
    "iso2": "CN",
    "iso3": "CHN",
    "admin_name": "Guangxi",
    "capital": "admin",
    "population": 2167000,
    "id": 1156605439
  },
  {
    "city": "Belém",
    "city_ascii": "Belem",
    "latitude": -1.45,
    "longitude": -48.48,
    "country": "Brazil",
    "iso2": "BR",
    "iso3": "BRA",
    "admin_name": "Pará",
    "capital": "admin",
    "population": 2167000,
    "id": 1076646823
  },
  {
    "city": "Patna",
    "city_ascii": "Patna",
    "latitude": 25.625,
    "longitude": 85.13,
    "country": "India",
    "iso2": "IN",
    "iso3": "IND",
    "admin_name": "Bihār",
    "capital": "admin",
    "population": 2158000,
    "id": 1356821429
  },
  {
    "city": "Santo Domingo",
    "city_ascii": "Santo Domingo",
    "latitude": 18.4701,
    "longitude": -69.9001,
    "country": "Dominican Republic",
    "iso2": "DO",
    "iso3": "DOM",
    "admin_name": "Ozama",
    "capital": "primary",
    "population": 2154000,
    "id": 1214636202
  },
  {
    "city": "Ürümqi",
    "city_ascii": "Urumqi",
    "latitude": 43.805,
    "longitude": 87.575,
    "country": "China",
    "iso2": "CN",
    "iso3": "CHN",
    "admin_name": "Xinjiang",
    "capital": "admin",
    "population": 2151000,
    "id": 1156051276
  },
  {
    "city": "Zaozhuang",
    "city_ascii": "Zaozhuang",
    "latitude": 34.88,
    "longitude": 117.57,
    "country": "China",
    "iso2": "CN",
    "iso3": "CHN",
    "admin_name": "Shandong",
    "capital": "",
    "population": 2145000,
    "id": 1156796454
  },
  {
    "city": "Baku",
    "city_ascii": "Baku",
    "latitude": 40.3953,
    "longitude": 49.8622,
    "country": "Azerbaijan",
    "iso2": "AZ",
    "iso3": "AZE",
    "admin_name": "Bakı",
    "capital": "primary",
    "population": 2122300,
    "id": 1031946365
  },
  {
    "city": "Accra",
    "city_ascii": "Accra",
    "latitude": 5.55,
    "longitude": -0.2167,
    "country": "Ghana",
    "iso2": "GH",
    "iso3": "GHA",
    "admin_name": "Greater Accra",
    "capital": "primary",
    "population": 2121000,
    "id": 1288299415
  },
  {
    "city": "Yantai",
    "city_ascii": "Yantai",
    "latitude": 37.5304,
    "longitude": 121.4,
    "country": "China",
    "iso2": "CN",
    "iso3": "CHN",
    "admin_name": "Shandong",
    "capital": "",
    "population": 2116000,
    "id": 1156932948
  },
  {
    "city": "Medan",
    "city_ascii": "Medan",
    "latitude": 3.58,
    "longitude": 98.65,
    "country": "Indonesia",
    "iso2": "ID",
    "iso3": "IDN",
    "admin_name": "Sumatera Utara",
    "capital": "admin",
    "population": 2115000,
    "id": 1360543171
  },
  {
    "city": "Santa Cruz",
    "city_ascii": "Santa Cruz",
    "latitude": -17.7539,
    "longitude": -63.226,
    "country": "Bolivia",
    "iso2": "BO",
    "iso3": "BOL",
    "admin_name": "Santa Cruz",
    "capital": "",
    "population": 2102998,
    "id": 1068002564
  },
  {
    "city": "Saint Louis",
    "city_ascii": "Saint Louis",
    "latitude": 38.6358,
    "longitude": -90.2451,
    "country": "United States",
    "iso2": "US",
    "iso3": "USA",
    "admin_name": "Missouri",
    "capital": "",
    "population": 2096990,
    "id": 1840001651
  },
  {
    "city": "Xuzhou",
    "city_ascii": "Xuzhou",
    "latitude": 34.28,
    "longitude": 117.18,
    "country": "China",
    "iso2": "CN",
    "iso3": "CHN",
    "admin_name": "Jiangsu",
    "capital": "minor",
    "population": 2091000,
    "id": 1156241678
  },
  {
    "city": "Linyi",
    "city_ascii": "Linyi",
    "latitude": 35.08,
    "longitude": 118.33,
    "country": "China",
    "iso2": "CN",
    "iso3": "CHN",
    "admin_name": "Shandong",
    "capital": "",
    "population": 2082000,
    "id": 1156086320
  },
  {
    "city": "Maracaibo",
    "city_ascii": "Maracaibo",
    "latitude": 10.73,
    "longitude": -71.66,
    "country": "Venezuela",
    "iso2": "VE",
    "iso3": "VEN",
    "admin_name": "Zulia",
    "capital": "admin",
    "population": 2072000,
    "id": 1862072711
  },
  {
    "city": "Riverside",
    "city_ascii": "Riverside",
    "latitude": 33.9382,
    "longitude": -117.3949,
    "country": "United States",
    "iso2": "US",
    "iso3": "USA",
    "admin_name": "California",
    "capital": "",
    "population": 2065627,
    "id": 1840020551
  },
  {
    "city": "Kuwait",
    "city_ascii": "Kuwait",
    "latitude": 29.3697,
    "longitude": 47.9783,
    "country": "Kuwait",
    "iso2": "KW",
    "iso3": "KWT",
    "admin_name": "",
    "capital": "primary",
    "population": 2063000,
    "id": 1414102075
  },
  {
    "city": "Ad Damman",
    "city_ascii": "Ad Damman",
    "latitude": 26.4282,
    "longitude": 50.0997,
    "country": "Saudi Arabia",
    "iso2": "SA",
    "iso3": "SAU",
    "admin_name": "Ash Sharqīyah",
    "capital": "admin",
    "population": 2054710,
    "id": 1682452296
  },
  {
    "city": "Haikou",
    "city_ascii": "Haikou",
    "latitude": 20.05,
    "longitude": 110.32,
    "country": "China",
    "iso2": "CN",
    "iso3": "CHN",
    "admin_name": "Hainan",
    "capital": "admin",
    "population": 2046189,
    "id": 1156183327
  },
  {
    "city": "Hiroshima",
    "city_ascii": "Hiroshima",
    "latitude": 34.3878,
    "longitude": 132.4429,
    "country": "Japan",
    "iso2": "JP",
    "iso3": "JPN",
    "admin_name": "Hiroshima",
    "capital": "admin",
    "population": 2045000,
    "id": 1392373695
  },
  {
    "city": "Las Vegas",
    "city_ascii": "Las Vegas",
    "latitude": 36.2288,
    "longitude": -115.2603,
    "country": "United States",
    "iso2": "US",
    "iso3": "USA",
    "admin_name": "Nevada",
    "capital": "",
    "population": 2044731,
    "id": 1840020364
  },
  {
    "city": "Baotou",
    "city_ascii": "Baotou",
    "latitude": 40.6522,
    "longitude": 109.822,
    "country": "China",
    "iso2": "CN",
    "iso3": "CHN",
    "admin_name": "Inner Mongolia",
    "capital": "",
    "population": 2036000,
    "id": 1156032751
  },
  {
    "city": "Hefei",
    "city_ascii": "Hefei",
    "latitude": 31.85,
    "longitude": 117.28,
    "country": "China",
    "iso2": "CN",
    "iso3": "CHN",
    "admin_name": "Anhui",
    "capital": "admin",
    "population": 2035000,
    "id": 1156332710
  },
  {
    "city": "Portland",
    "city_ascii": "Portland",
    "latitude": 45.5372,
    "longitude": -122.65,
    "country": "United States",
    "iso2": "US",
    "iso3": "USA",
    "admin_name": "Oregon",
    "capital": "",
    "population": 2027629,
    "id": 1840019941
  },
  {
    "city": "Indore",
    "city_ascii": "Indore",
    "latitude": 22.7151,
    "longitude": 75.865,
    "country": "India",
    "iso2": "IN",
    "iso3": "IND",
    "admin_name": "Madhya Pradesh",
    "capital": "",
    "population": 2026000,
    "id": 1356402812
  },
  {
    "city": "Goiânia",
    "city_ascii": "Goiania",
    "latitude": -16.72,
    "longitude": -49.3,
    "country": "Brazil",
    "iso2": "BR",
    "iso3": "BRA",
    "admin_name": "Goiás",
    "capital": "admin",
    "population": 2022000,
    "id": 1076034054
  },
  {
    "city": "Sanaa",
    "city_ascii": "Sanaa",
    "latitude": 15.3547,
    "longitude": 44.2066,
    "country": "Yemen",
    "iso2": "YE",
    "iso3": "YEM",
    "admin_name": "Amānat al ‘Āşimah",
    "capital": "primary",
    "population": 2008000,
    "id": 1887750814
  },
  {
    "city": "Port-au-Prince",
    "city_ascii": "Port-au-Prince",
    "latitude": 18.541,
    "longitude": -72.336,
    "country": "Haiti",
    "iso2": "HT",
    "iso3": "HTI",
    "admin_name": "Ouest",
    "capital": "primary",
    "population": 1998000,
    "id": 1332401940
  },
  {
    "city": "San Antonio",
    "city_ascii": "San Antonio",
    "latitude": 29.4722,
    "longitude": -98.5247,
    "country": "United States",
    "iso2": "US",
    "iso3": "USA",
    "admin_name": "Texas",
    "capital": "",
    "population": 1976787,
    "id": 1840022220
  },
  {
    "city": "Haiphong",
    "city_ascii": "Haiphong",
    "latitude": 20.83,
    "longitude": 106.6801,
    "country": "Vietnam",
    "iso2": "VN",
    "iso3": "VNM",
    "admin_name": "Hải Phòng",
    "capital": "admin",
    "population": 1969000,
    "id": 1704000623
  },
  {
    "city": "Suzhou",
    "city_ascii": "Suzhou",
    "latitude": 33.6361,
    "longitude": 116.9789,
    "country": "China",
    "iso2": "CN",
    "iso3": "CHN",
    "admin_name": "Anhui",
    "capital": "",
    "population": 1964000,
    "id": 1156871297
  },
  {
    "city": "Nanyang",
    "city_ascii": "Nanyang",
    "latitude": 33.0004,
    "longitude": 112.53,
    "country": "China",
    "iso2": "CN",
    "iso3": "CHN",
    "admin_name": "Henan",
    "capital": "",
    "population": 1944000,
    "id": 1156192287
  },
  {
    "city": "Bucharest",
    "city_ascii": "Bucharest",
    "latitude": 44.4334,
    "longitude": 26.0999,
    "country": "Romania",
    "iso2": "RO",
    "iso3": "ROU",
    "admin_name": "Bucureşti",
    "capital": "primary",
    "population": 1942000,
    "id": 1642414442
  },
  {
    "city": "Ningbo",
    "city_ascii": "Ningbo",
    "latitude": 29.88,
    "longitude": 121.55,
    "country": "China",
    "iso2": "CN",
    "iso3": "CHN",
    "admin_name": "Zhejiang",
    "capital": "minor",
    "population": 1923000,
    "id": 1156170787
  },
  {
    "city": "Douala",
    "city_ascii": "Douala",
    "latitude": 4.0604,
    "longitude": 9.71,
    "country": "Cameroon",
    "iso2": "CM",
    "iso3": "CMR",
    "admin_name": "Littoral",
    "capital": "admin",
    "population": 1906000,
    "id": 1120494607
  },
  {
    "city": "Tangshan",
    "city_ascii": "Tangshan",
    "latitude": 39.6243,
    "longitude": 118.1944,
    "country": "China",
    "iso2": "CN",
    "iso3": "CHN",
    "admin_name": "Hebei",
    "capital": "",
    "population": 1879000,
    "id": 1156904299
  },
  {
    "city": "Tainan",
    "city_ascii": "Tainan",
    "latitude": 23,
    "longitude": 120.2,
    "country": "Taiwan",
    "iso2": "TW",
    "iso3": "TWN",
    "admin_name": "Tainan",
    "capital": "admin",
    "population": 1876312,
    "id": 1158061376
  },
  {
    "city": "Datong",
    "city_ascii": "Datong",
    "latitude": 40.08,
    "longitude": 113.3,
    "country": "China",
    "iso2": "CN",
    "iso3": "CHN",
    "admin_name": "Shanxi",
    "capital": "",
    "population": 1873000,
    "id": 1156029637
  },
  {
    "city": "Asunción",
    "city_ascii": "Asuncion",
    "latitude": -25.2964,
    "longitude": -57.6415,
    "country": "Paraguay",
    "iso2": "PY",
    "iso3": "PRY",
    "admin_name": "Asunción",
    "capital": "primary",
    "population": 1870000,
    "id": 1600057911
  },
  {
    "city": "Saidu",
    "city_ascii": "Saidu",
    "latitude": 34.75,
    "longitude": 72.35,
    "country": "Pakistan",
    "iso2": "PK",
    "iso3": "PAK",
    "admin_name": "Khyber Pakhtunkhwa",
    "capital": "minor",
    "population": 1860310,
    "id": 1586619596
  },
  {
    "city": "Brisbane",
    "city_ascii": "Brisbane",
    "latitude": -27.455,
    "longitude": 153.0351,
    "country": "Australia",
    "iso2": "AU",
    "iso3": "AUS",
    "admin_name": "Queensland",
    "capital": "admin",
    "population": 1860000,
    "id": 1036192929
  },
  {
    "city": "Rawalpindi",
    "city_ascii": "Rawalpindi",
    "latitude": 33.6,
    "longitude": 73.04,
    "country": "Pakistan",
    "iso2": "PK",
    "iso3": "PAK",
    "admin_name": "Punjab",
    "capital": "minor",
    "population": 1858000,
    "id": 1586344001
  },
  {
    "city": "Beirut",
    "city_ascii": "Beirut",
    "latitude": 33.872,
    "longitude": 35.5097,
    "country": "Lebanon",
    "iso2": "LB",
    "iso3": "LBN",
    "admin_name": "Beyrouth",
    "capital": "primary",
    "population": 1846000,
    "id": 1422847713
  },
  {
    "city": "Sacramento",
    "city_ascii": "Sacramento",
    "latitude": 38.5666,
    "longitude": -121.4683,
    "country": "United States",
    "iso2": "US",
    "iso3": "USA",
    "admin_name": "California",
    "capital": "admin",
    "population": 1830061,
    "id": 1840021491
  },
  {
    "city": "Kyoto",
    "city_ascii": "Kyoto",
    "latitude": 35.03,
    "longitude": 135.75,
    "country": "Japan",
    "iso2": "JP",
    "iso3": "JPN",
    "admin_name": "Kyōto",
    "capital": "admin",
    "population": 1805000,
    "id": 1392622735
  },
  {
    "city": "Minsk",
    "city_ascii": "Minsk",
    "latitude": 53.9,
    "longitude": 27.5666,
    "country": "Belarus",
    "iso2": "BY",
    "iso3": "BLR",
    "admin_name": "",
    "capital": "primary",
    "population": 1805000,
    "id": 1112348503
  },
  {
    "city": "San Jose",
    "city_ascii": "San Jose",
    "latitude": 37.302,
    "longitude": -121.8488,
    "country": "United States",
    "iso2": "US",
    "iso3": "USA",
    "admin_name": "California",
    "capital": "",
    "population": 1804359,
    "id": 1840021570
  },
  {
    "city": "Barranquilla",
    "city_ascii": "Barranquilla",
    "latitude": 10.96,
    "longitude": -74.8,
    "country": "Colombia",
    "iso2": "CO",
    "iso3": "COL",
    "admin_name": "Atlántico",
    "capital": "admin",
    "population": 1798000,
    "id": 1170179113
  },
  {
    "city": "Valencia",
    "city_ascii": "Valencia",
    "latitude": 10.23,
    "longitude": -67.98,
    "country": "Venezuela",
    "iso2": "VE",
    "iso3": "VEN",
    "admin_name": "Carabobo",
    "capital": "admin",
    "population": 1770000,
    "id": 1862309871
  },
  {
    "city": "Shuyang",
    "city_ascii": "Shuyang",
    "latitude": 34.1299,
    "longitude": 118.7734,
    "country": "China",
    "iso2": "CN",
    "iso3": "CHN",
    "admin_name": "Jiangsu",
    "capital": "",
    "population": 1770000,
    "id": 1156051957
  },
  {
    "city": "Orlando",
    "city_ascii": "Orlando",
    "latitude": 28.4801,
    "longitude": -81.3448,
    "country": "United States",
    "iso2": "US",
    "iso3": "USA",
    "admin_name": "Florida",
    "capital": "",
    "population": 1757288,
    "id": 1840015099
  },
  {
    "city": "Hamburg",
    "city_ascii": "Hamburg",
    "latitude": 53.55,
    "longitude": 10,
    "country": "Germany",
    "iso2": "DE",
    "iso3": "DEU",
    "admin_name": "Hamburg",
    "capital": "admin",
    "population": 1757000,
    "id": 1276041799
  },
  {
    "city": "Vadodara",
    "city_ascii": "Vadodara",
    "latitude": 22.31,
    "longitude": 73.18,
    "country": "India",
    "iso2": "IN",
    "iso3": "IND",
    "admin_name": "Gujarāt",
    "capital": "",
    "population": 1756000,
    "id": 1356705249
  },
  {
    "city": "Shangqiu",
    "city_ascii": "Shangqiu",
    "latitude": 34.4504,
    "longitude": 115.65,
    "country": "China",
    "iso2": "CN",
    "iso3": "CHN",
    "admin_name": "Henan",
    "capital": "",
    "population": 1753000,
    "id": 1156805441
  },
  {
    "city": "Manaus",
    "city_ascii": "Manaus",
    "latitude": -3.1,
    "longitude": -60,
    "country": "Brazil",
    "iso2": "BR",
    "iso3": "BRA",
    "admin_name": "Amazonas",
    "capital": "admin",
    "population": 1753000,
    "id": 1076607274
  },
  {
    "city": "Palembang",
    "city_ascii": "Palembang",
    "latitude": -2.98,
    "longitude": 104.75,
    "country": "Indonesia",
    "iso2": "ID",
    "iso3": "IDN",
    "admin_name": "Sumatera Selatan",
    "capital": "admin",
    "population": 1749000,
    "id": 1360902897
  },
  {
    "city": "Wuxi",
    "city_ascii": "Wuxi",
    "latitude": 31.58,
    "longitude": 120.3,
    "country": "China",
    "iso2": "CN",
    "iso3": "CHN",
    "admin_name": "Jiangsu",
    "capital": "minor",
    "population": 1749000,
    "id": 1156019650
  },
  {
    "city": "Brussels",
    "city_ascii": "Brussels",
    "latitude": 50.8333,
    "longitude": 4.3333,
    "country": "Belgium",
    "iso2": "BE",
    "iso3": "BEL",
    "admin_name": "Brussels-Capital Region",
    "capital": "primary",
    "population": 1743000,
    "id": 1056469830
  },
  {
    "city": "Essen",
    "city_ascii": "Essen",
    "latitude": 51.45,
    "longitude": 7.0166,
    "country": "Germany",
    "iso2": "DE",
    "iso3": "DEU",
    "admin_name": "North Rhine-Westphalia",
    "capital": "minor",
    "population": 1742135,
    "id": 1276769247
  },
  {
    "city": "Cleveland",
    "city_ascii": "Cleveland",
    "latitude": 41.4766,
    "longitude": -81.6805,
    "country": "United States",
    "iso2": "US",
    "iso3": "USA",
    "admin_name": "Ohio",
    "capital": "",
    "population": 1731637,
    "id": 1840000596
  },
  {
    "city": "Bhopal",
    "city_ascii": "Bhopal",
    "latitude": 23.25,
    "longitude": 77.41,
    "country": "India",
    "iso2": "IN",
    "iso3": "IND",
    "admin_name": "Madhya Pradesh",
    "capital": "admin",
    "population": 1727000,
    "id": 1356734039
  },
  {
    "city": "Hohhot",
    "city_ascii": "Hohhot",
    "latitude": 40.82,
    "longitude": 111.66,
    "country": "China",
    "iso2": "CN",
    "iso3": "CHN",
    "admin_name": "Inner Mongolia",
    "capital": "admin",
    "population": 1726000,
    "id": 1156210167
  },
  {
    "city": "Pittsburgh",
    "city_ascii": "Pittsburgh",
    "latitude": 40.4396,
    "longitude": -79.9763,
    "country": "United States",
    "iso2": "US",
    "iso3": "USA",
    "admin_name": "Pennsylvania",
    "capital": "",
    "population": 1722206,
    "id": 1840001254
  },
  {
    "city": "Luoyang",
    "city_ascii": "Luoyang",
    "latitude": 34.68,
    "longitude": 112.4701,
    "country": "China",
    "iso2": "CN",
    "iso3": "CHN",
    "admin_name": "Henan",
    "capital": "",
    "population": 1715000,
    "id": 1156069315
  },
  {
    "city": "Santos",
    "city_ascii": "Santos",
    "latitude": -23.9537,
    "longitude": -46.3329,
    "country": "Brazil",
    "iso2": "BR",
    "iso3": "BRA",
    "admin_name": "São Paulo",
    "capital": "",
    "population": 1709000,
    "id": 1076033299
  },
  {
    "city": "Jianmen",
    "city_ascii": "Jianmen",
    "latitude": 30.6501,
    "longitude": 113.16,
    "country": "China",
    "iso2": "CN",
    "iso3": "CHN",
    "admin_name": "Hubei",
    "capital": "",
    "population": 1708000,
    "id": 1156060544
  },
  {
    "city": "Warsaw",
    "city_ascii": "Warsaw",
    "latitude": 52.25,
    "longitude": 21,
    "country": "Poland",
    "iso2": "PL",
    "iso3": "POL",
    "admin_name": "Mazowieckie",
    "capital": "primary",
    "population": 1707000,
    "id": 1616024847
  },
  {
    "city": "Rabat",
    "city_ascii": "Rabat",
    "latitude": 34.0253,
    "longitude": -6.8361,
    "country": "Morocco",
    "iso2": "MA",
    "iso3": "MAR",
    "admin_name": "Rabat-Salé-Kénitra",
    "capital": "primary",
    "population": 1705000,
    "id": 1504023252
  },
  {
    "city": "Vitória",
    "city_ascii": "Vitoria",
    "latitude": -20.324,
    "longitude": -40.366,
    "country": "Brazil",
    "iso2": "BR",
    "iso3": "BRA",
    "admin_name": "Espírito Santo",
    "capital": "admin",
    "population": 1704000,
    "id": 1076376829
  },
  {
    "city": "Quito",
    "city_ascii": "Quito",
    "latitude": -0.215,
    "longitude": -78.5001,
    "country": "Ecuador",
    "iso2": "EC",
    "iso3": "ECU",
    "admin_name": "Pichincha",
    "capital": "primary",
    "population": 1701000,
    "id": 1218441993
  },
  {
    "city": "Antananarivo",
    "city_ascii": "Antananarivo",
    "latitude": -18.9166,
    "longitude": 47.5166,
    "country": "Madagascar",
    "iso2": "MG",
    "iso3": "MDG",
    "admin_name": "Antananarivo",
    "capital": "primary",
    "population": 1697000,
    "id": 1450978461
  },
  {
    "city": "Coimbatore",
    "city_ascii": "Coimbatore",
    "latitude": 11,
    "longitude": 76.95,
    "country": "India",
    "iso2": "IN",
    "iso3": "IND",
    "admin_name": "Tamil Nādu",
    "capital": "",
    "population": 1696000,
    "id": 1356999503
  },
  {
    "city": "Daqing",
    "city_ascii": "Daqing",
    "latitude": 46.58,
    "longitude": 125,
    "country": "China",
    "iso2": "CN",
    "iso3": "CHN",
    "admin_name": "Heilongjiang",
    "capital": "",
    "population": 1693000,
    "id": 1156403962
  },
  {
    "city": "Luan",
    "city_ascii": "Luan",
    "latitude": 31.7503,
    "longitude": 116.48,
    "country": "China",
    "iso2": "CN",
    "iso3": "CHN",
    "admin_name": "Anhui",
    "capital": "minor",
    "population": 1690000,
    "id": 1156499624
  },
  {
    "city": "Wanzhou",
    "city_ascii": "Wanzhou",
    "latitude": 30.82,
    "longitude": 108.4,
    "country": "China",
    "iso2": "CN",
    "iso3": "CHN",
    "admin_name": "Chongqing",
    "capital": "",
    "population": 1680000,
    "id": 1156025536
  },
  {
    "city": "Budapest",
    "city_ascii": "Budapest",
    "latitude": 47.5,
    "longitude": 19.0833,
    "country": "Hungary",
    "iso2": "HU",
    "iso3": "HUN",
    "admin_name": "Budapest",
    "capital": "primary",
    "population": 1679000,
    "id": 1348611435
  },
  {
    "city": "Turin",
    "city_ascii": "Turin",
    "latitude": 45.0704,
    "longitude": 7.67,
    "country": "Italy",
    "iso2": "IT",
    "iso3": "ITA",
    "admin_name": "Piedmont",
    "capital": "admin",
    "population": 1652000,
    "id": 1380244627
  },
  {
    "city": "Suzhou",
    "city_ascii": "Suzhou",
    "latitude": 31.3005,
    "longitude": 120.62,
    "country": "China",
    "iso2": "CN",
    "iso3": "CHN",
    "admin_name": "Jiangsu",
    "capital": "minor",
    "population": 1650000,
    "id": 1156029196
  },
  {
    "city": "Ludhiana",
    "city_ascii": "Ludhiana",
    "latitude": 30.9278,
    "longitude": 75.8723,
    "country": "India",
    "iso2": "IN",
    "iso3": "IND",
    "admin_name": "Punjab",
    "capital": "",
    "population": 1649000,
    "id": 1356929498
  },
  {
    "city": "Kumasi",
    "city_ascii": "Kumasi",
    "latitude": 6.69,
    "longitude": -1.63,
    "country": "Ghana",
    "iso2": "GH",
    "iso3": "GHA",
    "admin_name": "Ashanti",
    "capital": "admin",
    "population": 1646000,
    "id": 1288181103
  },
  {
    "city": "Manhattan",
    "city_ascii": "Manhattan",
    "latitude": 40.7834,
    "longitude": -73.9662,
    "country": "United States",
    "iso2": "US",
    "iso3": "USA",
    "admin_name": "New York",
    "capital": "",
    "population": 1643734,
    "id": 1840034000
  },
  {
    "city": "Qiqihar",
    "city_ascii": "Qiqihar",
    "latitude": 47.345,
    "longitude": 123.99,
    "country": "China",
    "iso2": "CN",
    "iso3": "CHN",
    "admin_name": "Heilongjiang",
    "capital": "minor",
    "population": 1641000,
    "id": 1156775905
  },
  {
    "city": "Anshan",
    "city_ascii": "Anshan",
    "latitude": 41.115,
    "longitude": 122.94,
    "country": "China",
    "iso2": "CN",
    "iso3": "CHN",
    "admin_name": "Liaoning",
    "capital": "",
    "population": 1639000,
    "id": 1156901825
  },
  {
    "city": "Cincinnati",
    "city_ascii": "Cincinnati",
    "latitude": 39.1412,
    "longitude": -84.506,
    "country": "United States",
    "iso2": "US",
    "iso3": "USA",
    "admin_name": "Ohio",
    "capital": "",
    "population": 1634573,
    "id": 1840003814
  },
  {
    "city": "Austin",
    "city_ascii": "Austin",
    "latitude": 30.3038,
    "longitude": -97.7545,
    "country": "United States",
    "iso2": "US",
    "iso3": "USA",
    "admin_name": "Texas",
    "capital": "admin",
    "population": 1633847,
    "id": 1840019590
  },
  {
    "city": "Zhongli",
    "city_ascii": "Zhongli",
    "latitude": 24.965,
    "longitude": 121.2168,
    "country": "Taiwan",
    "iso2": "TW",
    "iso3": "TWN",
    "admin_name": "Taoyuan",
    "capital": "",
    "population": 1632616,
    "id": 1158025380
  },
  {
    "city": "Handan",
    "city_ascii": "Handan",
    "latitude": 36.58,
    "longitude": 114.48,
    "country": "China",
    "iso2": "CN",
    "iso3": "CHN",
    "admin_name": "Hebei",
    "capital": "",
    "population": 1631000,
    "id": 1156957080
  },
  {
    "city": "Taian",
    "city_ascii": "Taian",
    "latitude": 36.2,
    "longitude": 117.1201,
    "country": "China",
    "iso2": "CN",
    "iso3": "CHN",
    "admin_name": "Shandong",
    "capital": "",
    "population": 1629000,
    "id": 1156095188
  },
  {
    "city": "Isfahan",
    "city_ascii": "Isfahan",
    "latitude": 32.7,
    "longitude": 51.7,
    "country": "Iran",
    "iso2": "IR",
    "iso3": "IRN",
    "admin_name": "Eşfahān",
    "capital": "admin",
    "population": 1628000,
    "id": 1364023865
  },
  {
    "city": "Yaounde",
    "city_ascii": "Yaounde",
    "latitude": 3.8667,
    "longitude": 11.5167,
    "country": "Cameroon",
    "iso2": "CM",
    "iso3": "CMR",
    "admin_name": "Centre",
    "capital": "primary",
    "population": 1611000,
    "id": 1120298240
  },
  {
    "city": "Shantou",
    "city_ascii": "Shantou",
    "latitude": 23.37,
    "longitude": 116.67,
    "country": "China",
    "iso2": "CN",
    "iso3": "CHN",
    "admin_name": "Guangdong",
    "capital": "minor",
    "population": 1601000,
    "id": 1156457499
  },
  {
    "city": "Agra",
    "city_ascii": "Agra",
    "latitude": 27.1704,
    "longitude": 78.015,
    "country": "India",
    "iso2": "IN",
    "iso3": "IND",
    "admin_name": "Uttar Pradesh",
    "capital": "",
    "population": 1592000,
    "id": 1356187395
  },
  {
    "city": "Kansas City",
    "city_ascii": "Kansas City",
    "latitude": 39.1239,
    "longitude": -94.5541,
    "country": "United States",
    "iso2": "US",
    "iso3": "USA",
    "admin_name": "Missouri",
    "capital": "",
    "population": 1590762,
    "id": 1840008535
  },
  {
    "city": "Zhanjiang",
    "city_ascii": "Zhanjiang",
    "latitude": 21.2,
    "longitude": 110.38,
    "country": "China",
    "iso2": "CN",
    "iso3": "CHN",
    "admin_name": "Guangdong",
    "capital": "minor",
    "population": 1590000,
    "id": 1156502170
  },
  {
    "city": "La Paz",
    "city_ascii": "La Paz",
    "latitude": -16.498,
    "longitude": -68.15,
    "country": "Bolivia",
    "iso2": "BO",
    "iso3": "BOL",
    "admin_name": "La Paz",
    "capital": "primary",
    "population": 1590000,
    "id": 1068000064
  },
  {
    "city": "Kalyan",
    "city_ascii": "Kalyan",
    "latitude": 19.2502,
    "longitude": 73.1602,
    "country": "India",
    "iso2": "IN",
    "iso3": "IND",
    "admin_name": "Mahārāshtra",
    "capital": "",
    "population": 1576614,
    "id": 1356172246
  },
  {
    "city": "Abuja",
    "city_ascii": "Abuja",
    "latitude": 9.0833,
    "longitude": 7.5333,
    "country": "Nigeria",
    "iso2": "NG",
    "iso3": "NGA",
    "admin_name": "Federal Capital Territory",
    "capital": "primary",
    "population": 1576000,
    "id": 1566342270
  },
  {
    "city": "Harare",
    "city_ascii": "Harare",
    "latitude": -17.8178,
    "longitude": 31.0447,
    "country": "Zimbabwe",
    "iso2": "ZW",
    "iso3": "ZWE",
    "admin_name": "Harare",
    "capital": "primary",
    "population": 1572000,
    "id": 1716196799
  },
  {
    "city": "Xiantao",
    "city_ascii": "Xiantao",
    "latitude": 30.3704,
    "longitude": 113.44,
    "country": "China",
    "iso2": "CN",
    "iso3": "CHN",
    "admin_name": "Hubei",
    "capital": "",
    "population": 1556000,
    "id": 1156216927
  },
  {
    "city": "Tijuana",
    "city_ascii": "Tijuana",
    "latitude": 32.5,
    "longitude": -117.08,
    "country": "Mexico",
    "iso2": "MX",
    "iso3": "MEX",
    "admin_name": "Baja California",
    "capital": "minor",
    "population": 1553000,
    "id": 1484708778
  },
  {
    "city": "Weifang",
    "city_ascii": "Weifang",
    "latitude": 36.7204,
    "longitude": 119.1001,
    "country": "China",
    "iso2": "CN",
    "iso3": "CHN",
    "admin_name": "Shandong",
    "capital": "",
    "population": 1553000,
    "id": 1156912965
  },
  {
    "city": "Khulna",
    "city_ascii": "Khulna",
    "latitude": 22.84,
    "longitude": 89.56,
    "country": "Bangladesh",
    "iso2": "BD",
    "iso3": "BGD",
    "admin_name": "Khulna",
    "capital": "admin",
    "population": 1553000,
    "id": 1050667339
  },
  {
    "city": "Santiago",
    "city_ascii": "Santiago",
    "latitude": 19.5,
    "longitude": -70.67,
    "country": "Dominican Republic",
    "iso2": "DO",
    "iso3": "DOM",
    "admin_name": "Cibao Norte",
    "capital": "admin",
    "population": 1550753,
    "id": 1214985348
  },
  {
    "city": "Indianapolis",
    "city_ascii": "Indianapolis",
    "latitude": 39.7771,
    "longitude": -86.1458,
    "country": "United States",
    "iso2": "US",
    "iso3": "USA",
    "admin_name": "Indiana",
    "capital": "admin",
    "population": 1550488,
    "id": 1840030084
  },
  {
    "city": "Xinyang",
    "city_ascii": "Xinyang",
    "latitude": 32.1304,
    "longitude": 114.07,
    "country": "China",
    "iso2": "CN",
    "iso3": "CHN",
    "admin_name": "Henan",
    "capital": "",
    "population": 1541000,
    "id": 1156273453
  },
  {
    "city": "Luzhou",
    "city_ascii": "Luzhou",
    "latitude": 28.88,
    "longitude": 105.38,
    "country": "China",
    "iso2": "CN",
    "iso3": "CHN",
    "admin_name": "Sichuan",
    "capital": "minor",
    "population": 1537000,
    "id": 1156582079
  },
  {
    "city": "Perth",
    "city_ascii": "Perth",
    "latitude": -31.955,
    "longitude": 115.84,
    "country": "Australia",
    "iso2": "AU",
    "iso3": "AUS",
    "admin_name": "Western Australia",
    "capital": "admin",
    "population": 1532000,
    "id": 1036178956
  },
  {
    "city": "Toluca",
    "city_ascii": "Toluca",
    "latitude": 19.3304,
    "longitude": -99.67,
    "country": "Mexico",
    "iso2": "MX",
    "iso3": "MEX",
    "admin_name": "México",
    "capital": "admin",
    "population": 1531000,
    "id": 1484124846
  },
  {
    "city": "Leeds",
    "city_ascii": "Leeds",
    "latitude": 53.83,
    "longitude": -1.58,
    "country": "United Kingdom",
    "iso2": "GB",
    "iso3": "GBR",
    "admin_name": "Leeds",
    "capital": "admin",
    "population": 1529000,
    "id": 1826343963
  },
  {
    "city": "Vishakhapatnam",
    "city_ascii": "Vishakhapatnam",
    "latitude": 17.73,
    "longitude": 83.305,
    "country": "India",
    "iso2": "IN",
    "iso3": "IND",
    "admin_name": "Andhra Pradesh",
    "capital": "",
    "population": 1529000,
    "id": 1356692563
  },
  {
    "city": "Kōbe",
    "city_ascii": "Kobe",
    "latitude": 34.68,
    "longitude": 135.17,
    "country": "Japan",
    "iso2": "JP",
    "iso3": "JPN",
    "admin_name": "Hyōgo",
    "capital": "admin",
    "population": 1528478,
    "id": 1392978082
  },
  {
    "city": "Multan",
    "city_ascii": "Multan",
    "latitude": 30.2,
    "longitude": 71.455,
    "country": "Pakistan",
    "iso2": "PK",
    "iso3": "PAK",
    "admin_name": "Punjab",
    "capital": "minor",
    "population": 1522000,
    "id": 1586256291
  },
  {
    "city": "Kochi",
    "city_ascii": "Kochi",
    "latitude": 10.015,
    "longitude": 76.2239,
    "country": "India",
    "iso2": "IN",
    "iso3": "IND",
    "admin_name": "Kerala",
    "capital": "",
    "population": 1519000,
    "id": 1356707865
  },
  {
    "city": "Montevideo",
    "city_ascii": "Montevideo",
    "latitude": -34.858,
    "longitude": -56.1711,
    "country": "Uruguay",
    "iso2": "UY",
    "iso3": "URY",
    "admin_name": "Montevideo",
    "capital": "primary",
    "population": 1513000,
    "id": 1858107000
  },
  {
    "city": "Gujranwala",
    "city_ascii": "Gujranwala",
    "latitude": 32.1604,
    "longitude": 74.185,
    "country": "Pakistan",
    "iso2": "PK",
    "iso3": "PAK",
    "admin_name": "Punjab",
    "capital": "minor",
    "population": 1513000,
    "id": 1586400472
  },
  {
    "city": "Niterói",
    "city_ascii": "Niteroi",
    "latitude": -22.9,
    "longitude": -43.1,
    "country": "Brazil",
    "iso2": "BR",
    "iso3": "BRA",
    "admin_name": "Rio de Janeiro",
    "capital": "",
    "population": 1500513,
    "id": 1076501425
  },
  {
    "city": "Florence",
    "city_ascii": "Florence",
    "latitude": 43.78,
    "longitude": 11.25,
    "country": "Italy",
    "iso2": "IT",
    "iso3": "ITA",
    "admin_name": "Tuscany",
    "capital": "admin",
    "population": 1500000,
    "id": 1380726561
  },
  {
    "city": "Ganzhou",
    "city_ascii": "Ganzhou",
    "latitude": 25.92,
    "longitude": 114.95,
    "country": "China",
    "iso2": "CN",
    "iso3": "CHN",
    "admin_name": "Jiangxi",
    "capital": "minor",
    "population": 1500000,
    "id": 1156832475
  },
  {
    "city": "Liuzhou",
    "city_ascii": "Liuzhou",
    "latitude": 24.28,
    "longitude": 109.25,
    "country": "China",
    "iso2": "CN",
    "iso3": "CHN",
    "admin_name": "Guangxi",
    "capital": "minor",
    "population": 1497000,
    "id": 1156360785
  },
  {
    "city": "Columbus",
    "city_ascii": "Columbus",
    "latitude": 39.9859,
    "longitude": -82.9852,
    "country": "United States",
    "iso2": "US",
    "iso3": "USA",
    "admin_name": "Ohio",
    "capital": "admin",
    "population": 1495146,
    "id": 1840003760
  },
  {
    "city": "Bamako",
    "city_ascii": "Bamako",
    "latitude": 12.65,
    "longitude": -8,
    "country": "Mali",
    "iso2": "ML",
    "iso3": "MLI",
    "admin_name": "Bamako",
    "capital": "primary",
    "population": 1494000,
    "id": 1466965925
  },
  {
    "city": "Conakry",
    "city_ascii": "Conakry",
    "latitude": 9.5315,
    "longitude": -13.6802,
    "country": "Guinea",
    "iso2": "GN",
    "iso3": "GIN",
    "admin_name": "Conakry",
    "capital": "primary",
    "population": 1494000,
    "id": 1324568159
  },
  {
    "city": "Bursa",
    "city_ascii": "Bursa",
    "latitude": 40.2,
    "longitude": 29.07,
    "country": "Turkey",
    "iso2": "TR",
    "iso3": "TUR",
    "admin_name": "Bursa",
    "capital": "admin",
    "population": 1492000,
    "id": 1792903330
  },
  {
    "city": "León",
    "city_ascii": "Leon",
    "latitude": 21.15,
    "longitude": -101.7,
    "country": "Mexico",
    "iso2": "MX",
    "iso3": "MEX",
    "admin_name": "Guanajuato",
    "capital": "minor",
    "population": 1488000,
    "id": 1484811199
  },
  {
    "city": "Virginia Beach",
    "city_ascii": "Virginia Beach",
    "latitude": 36.7335,
    "longitude": -76.0435,
    "country": "United States",
    "iso2": "US",
    "iso3": "USA",
    "admin_name": "Virginia",
    "capital": "",
    "population": 1487505,
    "id": 1840003871
  },
  {
    "city": "Nasik",
    "city_ascii": "Nasik",
    "latitude": 20.0004,
    "longitude": 73.78,
    "country": "India",
    "iso2": "IN",
    "iso3": "IND",
    "admin_name": "Mahārāshtra",
    "capital": "",
    "population": 1473000,
    "id": 1356562598
  },
  {
    "city": "Fushun",
    "city_ascii": "Fushun",
    "latitude": 41.8654,
    "longitude": 123.87,
    "country": "China",
    "iso2": "CN",
    "iso3": "CHN",
    "admin_name": "Liaoning",
    "capital": "",
    "population": 1470000,
    "id": 1156857743
  },
  {
    "city": "Changde",
    "city_ascii": "Changde",
    "latitude": 29.03,
    "longitude": 111.68,
    "country": "China",
    "iso2": "CN",
    "iso3": "CHN",
    "admin_name": "Hunan",
    "capital": "minor",
    "population": 1469000,
    "id": 1156449091
  },
  {
    "city": "Daejeon",
    "city_ascii": "Daejeon",
    "latitude": 36.3355,
    "longitude": 127.425,
    "country": "Korea, South",
    "iso2": "KR",
    "iso3": "KOR",
    "admin_name": "Daejeon",
    "capital": "admin",
    "population": 1468000,
    "id": 1410993875
  },
  {
    "city": "Neijiang",
    "city_ascii": "Neijiang",
    "latitude": 29.5804,
    "longitude": 105.05,
    "country": "China",
    "iso2": "CN",
    "iso3": "CHN",
    "admin_name": "Sichuan",
    "capital": "minor",
    "population": 1466000,
    "id": 1156516335
  },
  {
    "city": "Phnom Penh",
    "city_ascii": "Phnom Penh",
    "latitude": 11.55,
    "longitude": 104.9166,
    "country": "Cambodia",
    "iso2": "KH",
    "iso3": "KHM",
    "admin_name": "Phnom Penh",
    "capital": "primary",
    "population": 1466000,
    "id": 1116260534
  },
  {
    "city": "Quanzhou",
    "city_ascii": "Quanzhou",
    "latitude": 24.9,
    "longitude": 118.58,
    "country": "China",
    "iso2": "CN",
    "iso3": "CHN",
    "admin_name": "Fujian",
    "capital": "minor",
    "population": 1463000,
    "id": 1156829655
  },
  {
    "city": "Kharkiv",
    "city_ascii": "Kharkiv",
    "latitude": 50,
    "longitude": 36.25,
    "country": "Ukraine",
    "iso2": "UA",
    "iso3": "UKR",
    "admin_name": "Kharkivs’ka Oblast’",
    "capital": "admin",
    "population": 1461000,
    "id": 1804588111
  },
  {
    "city": "Hyderabad",
    "city_ascii": "Hyderabad",
    "latitude": 25.38,
    "longitude": 68.375,
    "country": "Pakistan",
    "iso2": "PK",
    "iso3": "PAK",
    "admin_name": "Sindh",
    "capital": "",
    "population": 1459000,
    "id": 1586427790
  },
  {
    "city": "Bronx",
    "city_ascii": "Bronx",
    "latitude": 40.8501,
    "longitude": -73.8662,
    "country": "United States",
    "iso2": "US",
    "iso3": "USA",
    "admin_name": "New York",
    "capital": "",
    "population": 1455720,
    "id": 1840033999
  },
  {
    "city": "Lomé",
    "city_ascii": "Lome",
    "latitude": 6.1319,
    "longitude": 1.2228,
    "country": "Togo",
    "iso2": "TG",
    "iso3": "TGO",
    "admin_name": "Maritime",
    "capital": "primary",
    "population": 1452000,
    "id": 1768409132
  },
  {
    "city": "Córdoba",
    "city_ascii": "Cordoba",
    "latitude": -31.4,
    "longitude": -64.1823,
    "country": "Argentina",
    "iso2": "AR",
    "iso3": "ARG",
    "admin_name": "Córdoba",
    "capital": "admin",
    "population": 1452000,
    "id": 1032803249
  },
  {
    "city": "Huainan",
    "city_ascii": "Huainan",
    "latitude": 32.63,
    "longitude": 116.98,
    "country": "China",
    "iso2": "CN",
    "iso3": "CHN",
    "admin_name": "Anhui",
    "capital": "",
    "population": 1451000,
    "id": 1156877299
  },
  {
    "city": "Doha",
    "city_ascii": "Doha",
    "latitude": 25.2866,
    "longitude": 51.533,
    "country": "Qatar",
    "iso2": "QA",
    "iso3": "QAT",
    "admin_name": "Ad Dawḩah",
    "capital": "primary",
    "population": 1450000,
    "id": 1634459660
  },
  {
    "city": "Kuala Lumpur",
    "city_ascii": "Kuala Lumpur",
    "latitude": 3.1667,
    "longitude": 101.7,
    "country": "Malaysia",
    "iso2": "MY",
    "iso3": "MYS",
    "admin_name": "Kuala Lumpur",
    "capital": "primary",
    "population": 1448000,
    "id": 1458988644
  },
  {
    "city": "Maputo",
    "city_ascii": "Maputo",
    "latitude": -25.9553,
    "longitude": 32.5892,
    "country": "Mozambique",
    "iso2": "MZ",
    "iso3": "MOZ",
    "admin_name": "Maputo",
    "capital": "primary",
    "population": 1446000,
    "id": 1508074843
  },
  {
    "city": "Kaduna",
    "city_ascii": "Kaduna",
    "latitude": 10.52,
    "longitude": 7.44,
    "country": "Nigeria",
    "iso2": "NG",
    "iso3": "NGA",
    "admin_name": "Kaduna",
    "capital": "admin",
    "population": 1442000,
    "id": 1566368729
  },
  {
    "city": "Gwangju",
    "city_ascii": "Gwangju",
    "latitude": 35.171,
    "longitude": 126.9104,
    "country": "Korea, South",
    "iso2": "KR",
    "iso3": "KOR",
    "admin_name": "Gwangju",
    "capital": "admin",
    "population": 1440000,
    "id": 1410000087
  },
  {
    "city": "Charlotte",
    "city_ascii": "Charlotte",
    "latitude": 35.208,
    "longitude": -80.8308,
    "country": "United States",
    "iso2": "US",
    "iso3": "USA",
    "admin_name": "North Carolina",
    "capital": "",
    "population": 1438351,
    "id": 1840014557
  },
  {
    "city": "Kawasaki",
    "city_ascii": "Kawasaki",
    "latitude": 35.53,
    "longitude": 139.705,
    "country": "Japan",
    "iso2": "JP",
    "iso3": "JPN",
    "admin_name": "Kanagawa",
    "capital": "",
    "population": 1437266,
    "id": 1392879600
  },
  {
    "city": "San Salvador",
    "city_ascii": "San Salvador",
    "latitude": 13.71,
    "longitude": -89.203,
    "country": "El Salvador",
    "iso2": "SV",
    "iso3": "SLV",
    "admin_name": "San Salvador",
    "capital": "primary",
    "population": 1433000,
    "id": 1222647454
  },
  {
    "city": "Suining",
    "city_ascii": "Suining",
    "latitude": 30.5333,
    "longitude": 105.5333,
    "country": "China",
    "iso2": "CN",
    "iso3": "CHN",
    "admin_name": "Sichuan",
    "capital": "minor",
    "population": 1425000,
    "id": 1156655650
  },
  {
    "city": "Karaj",
    "city_ascii": "Karaj",
    "latitude": 35.8004,
    "longitude": 50.97,
    "country": "Iran",
    "iso2": "IR",
    "iso3": "IRN",
    "admin_name": "Alborz",
    "capital": "admin",
    "population": 1423000,
    "id": 1364258511
  },
  {
    "city": "Lyon",
    "city_ascii": "Lyon",
    "latitude": 45.77,
    "longitude": 4.83,
    "country": "France",
    "iso2": "FR",
    "iso3": "FRA",
    "admin_name": "Auvergne-Rhône-Alpes",
    "capital": "admin",
    "population": 1423000,
    "id": 1250196189
  },
  {
    "city": "Kampala",
    "city_ascii": "Kampala",
    "latitude": 0.3167,
    "longitude": 32.5833,
    "country": "Uganda",
    "iso2": "UG",
    "iso3": "UGA",
    "admin_name": "Kampala",
    "capital": "primary",
    "population": 1420000,
    "id": 1800406299
  },
  {
    "city": "Tabriz",
    "city_ascii": "Tabriz",
    "latitude": 38.0863,
    "longitude": 46.3012,
    "country": "Iran",
    "iso2": "IR",
    "iso3": "IRN",
    "admin_name": "Āz̄arbāyjān-e Sharqī",
    "capital": "admin",
    "population": 1413000,
    "id": 1364141756
  },
  {
    "city": "The Hague",
    "city_ascii": "The Hague",
    "latitude": 52.08,
    "longitude": 4.27,
    "country": "Netherlands",
    "iso2": "NL",
    "iso3": "NLD",
    "admin_name": "Zuid-Holland",
    "capital": "primary",
    "population": 1406000,
    "id": 1528799905
  },
  {
    "city": "Davao",
    "city_ascii": "Davao",
    "latitude": 7.11,
    "longitude": 125.63,
    "country": "Philippines",
    "iso2": "PH",
    "iso3": "PHL",
    "admin_name": "Davao",
    "capital": "admin",
    "population": 1402000,
    "id": 1608906877
  },
  {
    "city": "Marseille",
    "city_ascii": "Marseille",
    "latitude": 43.29,
    "longitude": 5.375,
    "country": "France",
    "iso2": "FR",
    "iso3": "FRA",
    "admin_name": "Provence-Alpes-Côte d’Azur",
    "capital": "admin",
    "population": 1400000,
    "id": 1250774071
  },
  {
    "city": "Meerut",
    "city_ascii": "Meerut",
    "latitude": 29.0004,
    "longitude": 77.7,
    "country": "India",
    "iso2": "IN",
    "iso3": "IND",
    "admin_name": "Uttar Pradesh",
    "capital": "",
    "population": 1398000,
    "id": 1356390476
  },
  {
    "city": "Semarang",
    "city_ascii": "Semarang",
    "latitude": -6.9666,
    "longitude": 110.42,
    "country": "Indonesia",
    "iso2": "ID",
    "iso3": "IDN",
    "admin_name": "Jawa Tengah",
    "capital": "admin",
    "population": 1396000,
    "id": 1360745537
  },
  {
    "city": "Mianyang",
    "city_ascii": "Mianyang",
    "latitude": 31.47,
    "longitude": 104.77,
    "country": "China",
    "iso2": "CN",
    "iso3": "CHN",
    "admin_name": "Sichuan",
    "capital": "minor",
    "population": 1396000,
    "id": 1156417758
  },
  {
    "city": "Faridabad",
    "city_ascii": "Faridabad",
    "latitude": 28.4333,
    "longitude": 77.3167,
    "country": "India",
    "iso2": "IN",
    "iso3": "IND",
    "admin_name": "Haryāna",
    "capital": "",
    "population": 1394000,
    "id": 1356013205
  },
  {
    "city": "Novosibirsk",
    "city_ascii": "Novosibirsk",
    "latitude": 55.03,
    "longitude": 82.96,
    "country": "Russia",
    "iso2": "RU",
    "iso3": "RUS",
    "admin_name": "Novosibirskaya Oblast’",
    "capital": "admin",
    "population": 1389000,
    "id": 1643399240
  },
  {
    "city": "Makkah",
    "city_ascii": "Makkah",
    "latitude": 21.43,
    "longitude": 39.82,
    "country": "Saudi Arabia",
    "iso2": "SA",
    "iso3": "SAU",
    "admin_name": "Makkah al Mukarramah",
    "capital": "admin",
    "population": 1385000,
    "id": 1682169241
  },
  {
    "city": "Dubai",
    "city_ascii": "Dubai",
    "latitude": 25.23,
    "longitude": 55.28,
    "country": "United Arab Emirates",
    "iso2": "AE",
    "iso3": "ARE",
    "admin_name": "Dubayy",
    "capital": "admin",
    "population": 1379000,
    "id": 1784736618
  },
  {
    "city": "Auckland",
    "city_ascii": "Auckland",
    "latitude": -36.8481,
    "longitude": 174.763,
    "country": "New Zealand",
    "iso2": "NZ",
    "iso3": "NZL",
    "admin_name": "Auckland",
    "capital": "",
    "population": 1377200,
    "id": 1554435911
  },
  {
    "city": "Milwaukee",
    "city_ascii": "Milwaukee",
    "latitude": 43.064,
    "longitude": -87.9669,
    "country": "United States",
    "iso2": "US",
    "iso3": "USA",
    "admin_name": "Wisconsin",
    "capital": "",
    "population": 1377104,
    "id": 1840003046
  },
  {
    "city": "Maanshan",
    "city_ascii": "Maanshan",
    "latitude": 31.7304,
    "longitude": 118.48,
    "country": "China",
    "iso2": "CN",
    "iso3": "CHN",
    "admin_name": "Anhui",
    "capital": "minor",
    "population": 1366302,
    "id": 1156847452
  },
  {
    "city": "Brazzaville",
    "city_ascii": "Brazzaville",
    "latitude": -4.2592,
    "longitude": 15.2847,
    "country": "Congo (Brazzaville)",
    "iso2": "CG",
    "iso3": "COG",
    "admin_name": "Brazzaville",
    "capital": "primary",
    "population": 1355000,
    "id": 1178340306
  },
  {
    "city": "Varanasi",
    "city_ascii": "Varanasi",
    "latitude": 25.33,
    "longitude": 83,
    "country": "India",
    "iso2": "IN",
    "iso3": "IND",
    "admin_name": "Uttar Pradesh",
    "capital": "",
    "population": 1352000,
    "id": 1356145782
  },
  {
    "city": "Lubumbashi",
    "city_ascii": "Lubumbashi",
    "latitude": -11.68,
    "longitude": 27.48,
    "country": "Congo (Kinshasa)",
    "iso2": "CD",
    "iso3": "COD",
    "admin_name": "Haut-Katanga",
    "capital": "admin",
    "population": 1352000,
    "id": 1180506234
  },
  {
    "city": "Yiyang",
    "city_ascii": "Yiyang",
    "latitude": 28.6004,
    "longitude": 112.33,
    "country": "China",
    "iso2": "CN",
    "iso3": "CHN",
    "admin_name": "Hunan",
    "capital": "",
    "population": 1352000,
    "id": 1156218615
  },
  {
    "city": "Ciudad Juárez",
    "city_ascii": "Ciudad Juarez",
    "latitude": 31.6904,
    "longitude": -106.49,
    "country": "Mexico",
    "iso2": "MX",
    "iso3": "MEX",
    "admin_name": "Chihuahua",
    "capital": "minor",
    "population": 1343000,
    "id": 1484840083
  },
  {
    "city": "Ghaziabad",
    "city_ascii": "Ghaziabad",
    "latitude": 28.6604,
    "longitude": 77.4084,
    "country": "India",
    "iso2": "IN",
    "iso3": "IND",
    "admin_name": "Uttar Pradesh",
    "capital": "",
    "population": 1341000,
    "id": 1356691871
  },
  {
    "city": "Pretoria",
    "city_ascii": "Pretoria",
    "latitude": -25.7069,
    "longitude": 28.2294,
    "country": "South Africa",
    "iso2": "ZA",
    "iso3": "ZAF",
    "admin_name": "Gauteng",
    "capital": "primary",
    "population": 1338000,
    "id": 1710176249
  },
  {
    "city": "Heze",
    "city_ascii": "Heze",
    "latitude": 35.23,
    "longitude": 115.45,
    "country": "China",
    "iso2": "CN",
    "iso3": "CHN",
    "admin_name": "Shandong",
    "capital": "minor",
    "population": 1338000,
    "id": 1156225008
  },
  {
    "city": "Porto",
    "city_ascii": "Porto",
    "latitude": 41.15,
    "longitude": -8.62,
    "country": "Portugal",
    "iso2": "PT",
    "iso3": "PRT",
    "admin_name": "Porto",
    "capital": "admin",
    "population": 1337000,
    "id": 1620356810
  },